Neighborhood,Neighborhood_real,Venue Category,Venue,Neighborhood_Latitude,Neighborhood_Longitude,id,location_address,location_crossStreet,location_postalCode,location_city,location_state,location_country,location_formattedAddress[0],categories_name,categories_pluralName,categories_shortName,cluster_label
Congress Avenue,,Liquer,Shiner's Saloon,30.2671263,-97.74332196,49b6d215f964a52013531fe3,422 Congress Ave Ste D,at 5th St,78701,Austin,TX,United States,422 Congress Ave Ste D (at 5th St),Bar,Bars,Bar,17
Congress Avenue,,Building,Texas State Capitol,30.27365926,-97.74081355,49bd2c3af964a52052541fe3,112 E 11th St,at Congress Ave,78701,Austin,TX,United States,112 E 11th St (at Congress Ave),Capitol Building,Capitol Buildings,Capitol Building,17
901 W Braker Ln,,Entertainment,Austin FC Stadium,30.38772964,-97.71942139,5d7669defbf1bf00083846f0,10414 McKalla Place,Braker Lane And Burnet Road,78758,Austin,TX,United States,10414 McKalla Place (Braker Lane And Burnet Road),Soccer Stadium,Soccer Stadiums,Soccer,25
Round Rock,,Entertainment,Kalahari Resort,30.51754951,-97.63729095,5d024ebbda2e00002cb91cab,501 S Kenney Fort Blvd,,78665,Round Rock,TX,United States,501 S Kenney Fort Blvd,Water Park,Water Parks,Water Park,32
East Riverside-Oltorf,,Building,Bishop Cidercade,30.252478,-97.741003,5f51a723cf74b37227ce7d02,600 E Riverside Dr,,78704,Austin,TX,United States,600 E Riverside Dr,Arcade,Arcades,Arcade,17
Round Rock,,Building,Tom Foolerys Adventure Park,30.521057,-97.63253,5fb9a9332846c6770fdc654a,,,78665,Round Rock,TX,United States,"Round Rock, TX 78665",Arcade,Arcades,Arcade,32
Manchaca,,Entertainment,Duke's Adventure Golf,30.15289304,-97.76794222,59bd7354a0215b132cdf4401,1716 E Slaughter Ln,,78747,Austin,TX,United States,1716 E Slaughter Ln,Mini Golf,Mini Golf Courses,Mini Golf,22
Cedar Park,,Entertainment,Cedar Rock Railroad,30.55656004,-97.76316269,4c264201db519521255d2c3a,Sam Bass Rd,FM 1431,78613,Cedar Park,TX,United States,Sam Bass Rd (FM 1431),General Entertainment,General Entertainment,Entertainment,15
Mueller,,Entertainment,Sekrit Theater,30.259544,-97.684454,575b6c9b498e3c8b2d2cee3a,1145 Perry Rd,,78721,Austin,TX,United States,1145 Perry Rd,Music Venue,Music Venues,Music Venue,14
Downtown,,Entertainment,Moody Theater,30.26538247,-97.74739236,55201374498e84ea41daa6f4,310 Willie Nelson Blvd,at Guadelupe St,78701,Austin,TX,United States,310 Willie Nelson Blvd (at Guadelupe St),Concert Hall,Concert Halls,Concert Hall,17
Moores Crossing,,Entertainment,Circuit of The Americas,30.13458701,-97.63588428,4d45f0201ed56dcbf985c054,9201 Circuit of the Americas Blvd,,78617,Austin,TX,United States,9201 Circuit of the Americas Blvd,Racetrack,Racetracks,Racetrack,24
Cedar Park,,Entertainment,H-E-B Center at Cedar Park,30.54139028,-97.82039837,4bf13f5e17880f4734122a37,2100 Avenue of the Stars,,78613,Cedar Park,TX,United States,2100 Avenue of the Stars,Hockey Arena,Hockey Arenas,Hockey,34
Barton Springs,,Entertainment,Zilker Park Disc Golf Course,30.26731795,-97.77570047,4bbf8c4274a9a59378a4cef6,2100 Barton Springs Blvd,,78704,Austin,TX,United States,2100 Barton Springs Blvd,Disc Golf,Disc Golf Courses,Disc Golf,9
Palm Valley,,Entertainment,Dell Diamond,30.52716502,-97.63071299,4b155039f964a52026b023e3,3400 E Palm Valley Blvd,,78665,Round Rock,TX,United States,3400 E Palm Valley Blvd,Baseball Stadium,Baseball Stadiums,Baseball,32
Barton Hills,,Art,Umlauf Sculpture Garden,30.26325158,-97.76650342,4b3fa5e3f964a52037ab25e3,605 Robert E Lee Rd,,78704,Austin,TX,United States,605 Robert E Lee Rd,Art Gallery,Art Galleries,Art Gallery,17
14611 N Mopac Expy,,Entertainment,Wells Branch Disc Golf Park,30.43387539,-97.67267609,4ce72ffd8ef78cfa54b9919b,Wellsport Dr,Wells Branch Blvd,78728,Austin,TX,United States,Wellsport Dr (Wells Branch Blvd),Disc Golf,Disc Golf Courses,Disc Golf,33
Leander,,Entertainment,Texas Stars Hockey,30.54136251,-97.82033905,4d990aa7af3d236a6b144bc7,,,78641,Cedar Park,TX,United States,"Cedar Park, TX 78641",Hockey Arena,Hockey Arenas,Hockey,34
Barton Springs,Bouldin Creek,Entertainment,Lester E. Palmer Events Center,30.26041966,-97.75293892,45e6cbb6f964a52057431fe3,900 Barton Springs Rd,Btw S 1st St. & S Lamar Blvd.,78704,Austin,TX,United States,900 Barton Springs Rd (Btw S 1st St. & S Lamar Blvd.),Event Space,Event Spaces,Event Space,17
Pflugerville,,Entertainment,Northtown Disc Golf Park,30.4194274,-97.64348702,4cfa58187945224b5f6c7fe7,14508 Harris Ridge Blvd,,78660,Travis Northeast,TX,United States,14508 Harris Ridge Blvd,Disc Golf,Disc Golf Courses,Disc Golf,33
Allandale,,Entertainment,Highland Lanes,30.37206243,-97.72588637,4a03640cf964a520b9711fe3,8909 Burnet Rd,,78757,Austin,TX,United States,8909 Burnet Rd,Bowling Alley,Bowling Alleys,Bowling Alley,11
Oak Hill,,Entertainment,Austin Roller Rink,30.15171903,-97.83474337,4b4a2d7df964a5207c7d26e3,11600 Manchachcha Rd Bld 1,,78748,Austin,TX,United States,11600 Manchachcha Rd Bld 1,Roller Rink,Roller Rinks,Roller Rink,4
Barton Springs,,Entertainment,Peter Pan Mini Golf,30.26032305,-97.75761137,462a4370f964a520d4451fe3,1207 Barton Springs Rd,Lamar Blvd,78704,Austin,TX,United States,1207 Barton Springs Rd (Lamar Blvd),Mini Golf,Mini Golf Courses,Mini Golf,17
Downtown,,Entertainment,Millennium Youth Entertainment Complex,30.271913,-97.710906,4b23f7a8f964a5200a5e24e3,1156 Hargrave St,,78702,Austin,TX,United States,1156 Hargrave St,Pool Hall,Pool Halls,Billiards,14
Anderson Mill,,Building,Main Event Entertainment,30.4451569,-97.7847581,431cdc00f964a52071271fe3,13301 N Highway 183,Anderson Mill Rd,78750,Austin,TX,United States,13301 N Highway 183 (Anderson Mill Rd),Arcade,Arcades,Arcade,26
Hancock,,Building,Arcade UFO,30.29538446,-97.73660988,4a6bd169f964a52001d01fe3,3101 Speedway,31st St.,78705,Austin,TX,United States,3101 Speedway (31st St.),Arcade,Arcades,Arcade,0
Barton Hills,,Liquer,Boomerz,30.23575685,-97.85594332,40b13b00f964a5206cf31ee3,6148 W Highway 290,,78735,Austin,TX,United States,6148 W Highway 290,Bar,Bars,Bar,30
Congress Avenue,,Art,Mexic-Arte Museum,30.26693695,-97.74297712,4a85fe96f964a520fcff1fe3,419 Congress Ave,at 5th St,78701,Austin,TX,United States,419 Congress Ave (at 5th St),Art Museum,Art Museums,Art Museum,17
Congress Avenue,,Entertainment,Texas You Museum,30.265686,-97.74377,5dd9b5053c39820007d55196,314 1/2 Congress Ave,,78701,Austin,TX,United States,314 1/2 Congress Ave,History Museum,History Museums,History Museum,17
Congress Avenue,,Building,Texas Toy Museum,30.265869,-97.744189,5df54db89d0cab000778bfbd,314 1/2 Congress Ave,,78701,Austin,TX,United States,314 1/2 Congress Ave,Arcade,Arcades,Arcade,17
Congress Avenue,,Art,The Contemporary Austin: Jones Center,30.26911557,-97.74246591,4a71e03df964a520c2d91fe3,700 Congress Ave,at 7th St,78701,Austin,TX,United States,700 Congress Ave (at 7th St),Art Museum,Art Museums,Art Museum,17
Windsor Hills,,Art,Wonderspaces,30.343637,-97.685276,5f22264367564371a9e113a3,,,78753,Austin,TX,United States,"Austin, TX 78753",Museum,Museums,Museum,18
Downtown,,Art,The Contemporary Austin: Laguna Gloria,30.31151199,-97.77459717,55bcf2e1498ef2c8f7bf9ae6,3809 W 35th St,,78703,Austin,TX,United States,3809 W 35th St,Art Museum,Art Museums,Art Museum,27
The University Of Texas,,Art,Ellsworth Kelly's Austin,30.28157834,-97.73780704,58f50efd286fda4cc9cd09ee,,,,Austin,TX,United States,"Austin, TX",Art Museum,Art Museums,Art Museum,0
6th Street,Downtown Austin,Art,Museum Of The Weird,30.26705989,-97.73874077,4b9d8f98f964a520c6b336e3,412 E 6th St,,78701,Austin,TX,United States,412 E 6th St,Museum,Museums,Museum,17
St. Johns,,Entertainment,The Daughters of The Republic of Texas Museum,30.34125,-97.701668,4da241f215ad530c89d09652,510 E Anderson Ln,,78752,Austin,TX,United States,510 E Anderson Ln,History Museum,History Museums,History Museum,18
Downtown,,Park,Betty And Edward Marcus Sculpture Park,30.312249,-97.773585,5cc892e081635b002c1bb518,,,78703,Austin,TX,United States,"Austin, TX 78703",Park,Parks,Park,27
Leander,,Park,Anderson Mill Garden Club,30.435378,-97.876411,4f32cc4619836c91c7fbcfce,13974 FM 2769,,78641,Leander,TX,United States,13974 FM 2769,Garden,Gardens,Garden,20
2nd / 4th / 5th / 7th Street,,Art,Joseph and Susanna Dickinson Hannig Museum,30.265696,-97.738869,4b8d484bf964a520cbf132e3,411 E 5th St,,78701,Austin,TX,United States,411 E 5th St,Museum,Museums,Museum,17
Hancock,,Entertainment,Glen Rose Dinosaur Tracks,30.28725508,-97.73229855,4d8e383dd00a6ea86c44b44f,,,78705,,Texas,United States,Texas,History Museum,History Museums,History Museum,0
Congress Avenue,,Hotel,Moody Rooftop,30.269576,-97.742705,5c75b0daf2554e002c00abca,700 Congress Ave,,78701,Austin,TX,United States,700 Congress Ave,Roof Deck,Roof Decks,Roof Deck,17
Cesar Chavez St,,Entertainment,Austin Toy Museum,30.260232,-97.732887,570698c7498e60ef83e10741,1108 Cesar Chavez,,78702,Austin,TX,United States,1108 Cesar Chavez,History Museum,History Museums,History Museum,17
Buda / Kyle,,Entertainment,Texas Western History Museum,30.083534,-97.842832,4ea989a730f8719c904ebb85,,,,Buda,TX,United States,"Buda, TX",History Museum,History Museums,History Museum,37
2nd / 4th / 5th / 7th Street,,Art,O. Henry House and Museum,30.26587201,-97.73900378,4b9fcf1bf964a520a84037e3,409 E 5th St,,78701,Austin,TX,United States,409 E 5th St,Museum,Museums,Museum,17
2nd / 4th / 5th / 7th Street,,Entertainment,Austin Fire Museum,30.265241,-97.738221,520fcc1a11d22803950c05e7,501 E 5th St,,,Austin,TX,United States,501 E 5th St,History Museum,History Museums,History Museum,17
14611 N Mopac Expy,,Entertainment,"The Wells Branch ""Gault"" Homestead Circa 1855",30.44235862,-97.67946513,4c77065307818cfa3b5ed3e3,Klattenhoff Drive,,78728,Austin,TX,United States,Klattenhoff Drive,History Museum,History Museums,History Museum,33
St. Johns,,Art,Hopscotch,30.326428,-97.716741,5c79f5c181635b002ce024d4,,,78752,Austin,TX,United States,"Austin, TX 78752",Art Museum,Art Museums,Art Museum,35
Downtown,,Entertainment,Texas Music Museum,30.26949429,-97.73062399,4e80d144d3e391bacbdd8912,,,78702,Austin,TX,United States,"Austin, TX 78702",History Museum,History Museums,History Museum,14
Downtown,,Art,Museum of Natural and Artificial Ephemerata,30.280168,-97.715351,49a8a85cf964a520a8521fe3,1808 Singleton Ave,,78702,Austin,TX,United States,1808 Singleton Ave,Museum,Museums,Museum,14
Red River St,,Entertainment,The Fomo Factory,30.268279,-97.736758,5b3f116404d1ae002ccf0c6d,720 Red River St,8th St,78701,Austin,TX,United States,720 Red River St (8th St),Event Space,Event Spaces,Event Space,17
Oak Hill,Signal Hill Road,Entertainment,Brunner Ranch,30.192388,-97.966564,58d6848553f5bb3ed8edf487,,,78737,,Texas,United States,Texas,History Museum,History Museums,History Museum,19
Congress Avenue,,Building,Capitol Visitors Center,30.27262501,-97.73929953,4bdc7b182a3a0f47c109b3b6,112 E 11th St,Congress,78701,Austin,TX,United States,112 E 11th St (Congress),Capitol Building,Capitol Buildings,Capitol Building,17
Downtown,,Entertainment,Texas Military Forces Museum,30.31372106,-97.76103806,4c8a7d68e51e6dcb7d7769de,2200 W 35th St,,78703,Austin,TX,United States,2200 W 35th St,History Museum,History Museums,History Museum,27
Downtown,,Art,AMOA-Arthouse at Laguna Gloria,30.3121277,-97.77390131,4f32c89d19836c91c7fa33d2,3809 W 35th St,,78703,Austin,TX,United States,3809 W 35th St,Art Museum,Art Museums,Art Museum,27
Downtown,,Entertainment,George Washington Carver Museum and Cultural Center,30.27018727,-97.72420479,49bb3ceef964a520de531fe3,1165 Angelina St,,78702,Austin,TX,United States,1165 Angelina St,History Museum,History Museums,History Museum,14
The University Of Texas,,Art,The H. J. Lutcher Stark Center,30.28504797,-97.73242884,4b9a7475f964a520ccb635e3,University of Texas,,,Austin,TX,United States,University of Texas,Museum,Museums,Museum,0
Round Rock,,Entertainment,Round Rock Volunteer Association Fire House Museum,30.527136,-97.633705,577a5249498e44e06742a7e8,Harrell Parkway,Hwy 79,,Round Rock,TX,United States,Harrell Parkway (Hwy 79),History Museum,History Museums,History Museum,32
Anderson Mill,,Art,Dinosaur Park,30.14141464,-97.48088837,4bbca1df8a4fb7134de93b9d,893 Union Chapel Rd,,78612,Cedar Creek,TX,United States,893 Union Chapel Rd,Museum,Museums,Museum,28
Downtown,,Entertainment,Agriculture Museum,30.27514235,-97.7408719,5123a7a5e4b0dcbf9729e7dc,,,78701,Austin,TX,United States,"Austin, TX 78701",History Museum,History Museums,History Museum,0
Downtown,"303 E 9th St, Austin, TX 78701, USA",Entertainment,Hirshfeld-Moore House,30.27145313,-97.74444735,4d24d6c1dcf4224b922ca776,,,78701,Austin,TX,United States,"Austin, TX",History Museum,History Museums,History Museum,17
Round Rock,,Entertainment,Williamson Museum On The Chisholm Trail,30.515038,-97.69005,59b41f98b0405661b675e31e,,,78681,Round Rock,TX,United States,"Round Rock, TX 78681",History Museum,History Museums,History Museum,23
Hancock,,Entertainment,16-inch Telescope @ RLM,30.28892798,-97.73650097,4b7c9a71f964a520489d2fe3,,,78705,Austin,TX,United States,"Austin, TX 78705",Planetarium,Planetariums,Planetarium,0
Buda / Kyle,,Art,Buda Metropolitan Museum Of Art,30.05537396,-97.83862346,4e9a4ba05503cfce7431b432,,,,Buda,TX,United States,"Buda, TX",Art Museum,Art Museums,Art Museum,37
Downtown,,Art,Humanities Texas,30.278466,-97.74370909,4d8cf7feca75b60cf81adea8,,,78701,,Texas,United States,Texas,Museum,Museums,Museum,0
St. Johns,,Art,The Computer Museum,30.33884349,-97.69368132,4c2be5e38abca593fef80020,,,78752,Austin,TX,United States,"Austin, TX 78752",Museum,Museums,Museum,18
The University Of Texas,,Art,Visual Arts Center,30.28661728,-97.73783112,4c0d44872466a593be517721,1 University Station D1300,23rd & Trinity,,Austin,TX,United States,1 University Station D1300 (23rd & Trinity),Art Museum,Art Museums,Art Museum,0
Hancock,,Art,Elisabet Ney Museum,30.30655563,-97.72639689,4b5b6b01f964a52070fc28e3,304 E 44th St,,78751,Austin,TX,United States,304 E 44th St,Art Museum,Art Museums,Art Museum,35
The University Of Texas,,Entertainment,Texas Memorial Museum (TMM),30.28702273,-97.73250558,4b3a88bdf964a5207a6925e3,University of Texas at Austin,2400 Trinity Street,78712,Austin,TX,United States,University of Texas at Austin (2400 Trinity Street),History Museum,History Museums,History Museum,0
Congress Avenue,,Art,The Blanton Museum of Art,30.28100596,-97.73770606,47a1bb5ef964a520794d1fe3,200 E Martin Luther King Jr Blvd,at Congress Ave,78701,Austin,TX,United States,200 E Martin Luther King Jr Blvd (at Congress Ave),Art Museum,Art Museums,Art Museum,0
Downtown,,Entertainment,French Legation Museum,30.2669916,-97.73176245,4a3434a4f964a520e39b1fe3,802 San Marcos St,,78702,Austin,TX,United States,802 San Marcos St,History Museum,History Museums,History Museum,14
Barton Hills,"300 S Congress Ave, Austin, TX 78704",Entertainment,Embassy Suites Happy Hour,30.25856164,-97.74690896,4f6a714fe4b073257744b171,,,78704,,,United States,Texas,Other Event,Other Events,Other Event,17
Oak Hill,,Art,The Lone Star School Of Music,30.21077156,-97.970047,560506d6498e9b2a60d39836,12010 W Highway 290 #230,,78737,Austin,,United States,12010 W Highway 290 #230,Music School,Music Schools,Music School,19
Leander,,Art,Texas Pumpkin Fest,30.566129,-97.808323,5f90b4fcbd1cc65e696f2fb8,,,78641,Leander,,United States,"Leander, TX 78641",Festival,Festivals,Festival,34
Frontage Road,,Building,Sterling Events Center,30.32314782,-97.70373264,573f9c11498eb6b8801ec7de,6134 US 290 Frontage Road,,,Austin,,United States,6134 US 290 Frontage Road,Conference,Conferences,Conference,35
Cesar Chavez St,,Hotel,LouÂ’s Bodega,30.257305,-97.724361,5c3e95b04a1cc0002c19dddf,1900 E Cesar Chavez St,,78702,Austin,TX,United States,1900 E Cesar Chavez St,Deli / Bodega,Delis / Bodegas,Deli / Bodega,14
Dripping Springs,,Grocery,H-E-B,30.1900379,-98.081731,4c470958972c0f475f6f2221,598 EHwy US 290,,78620,Dripping Springs,TX,United States,598 EHwy US 290,Grocery Store,Grocery Stores,Grocery Store,12
Oak Hill,,Hotel,Costco Food Court,30.21903426,-97.84274845,4d12624d0ad2f04d9fe5ab54,4301 W William Cannon Dr,,78749,Austin,TX,United States,4301 W William Cannon Dr,Food Court,Food Courts,Food Court,29
Cedar Park,Cedar Park Town Center,Hotel,Costco Food Court,30.52744229,-97.81954942,5a38297261e53b6eb871ce47,4601 183A,,78613,Cedar Park,TX,United States,4601 183A,Food Court,Food Courts,Food Court,34
Northwest Hills,North Burnet - Gateway,Hotel,Costco Food Court,30.39652996,-97.74399982,4e60faeea80951b317daba66,,,78759,Austin,TX,United States,"Austin, TX 78759",Food Court,Food Courts,Food Court,25
Allandale,,Hotel,T22 Chicken Joint,30.34797576,-97.73533545,5a9d7c9cbfc6d018a79749e4,7211 Burnet Rd,Greenlawn,78757,Austin,TX,United States,7211 Burnet Rd (Greenlawn),Fried Chicken Joint,Fried Chicken Joints,Fried Chicken,11
Downtown,,Restaurant,G'Raj Mahal Cafe,30.2583239,-97.73879343,4b1219b8f964a5200e8923e3,73 Rainey St,at Holly St.,78701,Austin,TX,United States,73 Rainey St (at Holly St.),Indian Restaurant,Indian Restaurants,Indian,17
Barton Hills,,Restaurant,NalaÂ’s,30.234819,-97.811574,5bff5abd250cab002c296228,,,78735,Sunset Valley,TX,United States,"Sunset Valley, TX 78735",Indian Restaurant,Indian Restaurants,Indian,29
Barton Hills,,Restaurant,Mumtaz Market,30.24641,-97.756224,600e259cb9c32c6d0da59319,,,78704,Austin,TX,United States,"Austin, TX 78704",Indian Restaurant,Indian Restaurants,Indian,17
Barton Hills,,Restaurant,Austin Dosa,30.251661,-97.754306,6041742b9535d423cf5807a1,,,78704,Austin,TX,United States,"Austin, TX 78704",South Indian Restaurant,South Indian Restaurants,South Indian,17
Cedar Park,,Restaurant,Tarka Indian Kitchen,30.47015587,-97.8008086,5acbc488a8792140a37c1a32,11066 Pecan Park Blvd,Lakeline Mall Dr,78613,Austin,TX,United States,11066 Pecan Park Blvd (Lakeline Mall Dr),Indian Restaurant,Indian Restaurants,Indian,3
Downtown,,Restaurant,Madras Dhaba,30.263012,-97.725906,5d3cf11ed60428000897dee0,,,78702,Austin,TX,United States,"Austin, TX 78702",Indian Restaurant,Indian Restaurants,Indian,14
901 W Braker Ln,,Restaurant,Zaika,30.372796,-97.724252,5b41131f5a2c91002ce35b4b,,,78758,Austin,TX,United States,"Austin, TX 78758",Indian Restaurant,Indian Restaurants,Indian,11
W Howard Ln,,Restaurant,Sangam Chettinad Indian Cuisne,30.442171,-97.74399,5b79ead7840fc2002c98aa66,6001 W Parmer Ln #140,,78727,Austin,TX,United States,6001 W Parmer Ln #140,South Indian Restaurant,South Indian Restaurants,South Indian,26
6th Street,,Restaurant,VixenÂ’s Wedding,30.26164,-97.722683,5d3240c574cc0f0007823916,1813 East 6th Street,,78702,Austin,TX,United States,1813 East 6th Street,Indian Restaurant,Indian Restaurants,Indian,14
Bee Cave Road,,Restaurant,Saffron Indian & Nepalese Cuisine,30.273536,-97.800156,5c4282a7bcbf7a002c1d0599,3201 Bee Cave Rd #148,,78746,Austin,TX,United States,3201 Bee Cave Rd #148,Indian Restaurant,Indian Restaurants,Indian,9
Oak Hill,,Restaurant,Jaipur Palace,30.155487,-97.792743,5c5a2ac0fdb9a7002c1954b3,"9900 S Ih 35 Frontage Rd, Suite P900",,78748,Austin,TX,United States,"9900 S Ih 35 Frontage Rd, Suite P900",Indian Restaurant,Indian Restaurants,Indian,22
14611 N Mopac Expy,,Restaurant,New Sitara,30.43521,-97.674465,5b006fa2db2aeb002c62d172,1779 Wells Branch Pkwy #102,Wells Port Dr.,78728,Austin,TX,United States,1779 Wells Branch Pkwy #102 (Wells Port Dr.),Indian Restaurant,Indian Restaurants,Indian,33
Cedar Park,,Restaurant,"NalaÂ’s, The Culinary Expert",30.53193856,-97.77993918,54387cc1498e918b44b83d7c,,,78613,Cedar Park,TX,United States,"Cedar Park, TX 78613",South Indian Restaurant,South Indian Restaurants,South Indian,15
W Howard Ln,,Restaurant,Spicy Monsoon,30.43785157,-97.69790769,4bd2173ba8b3a593b21c675f,13717 N MO Pac Expy Ste 300,at Wells Branch Pkwy,78727,Austin,TX,United States,13717 N MO Pac Expy Ste 300 (at Wells Branch Pkwy),Indian Restaurant,Indian Restaurants,Indian,6
Windsor Hills,,Restaurant,Nawabi Hyderabad house - Biryani Place,30.409194,-97.671544,5d2fa7ba03bcdd0008e33f43,12625 N Interstate 35,,78753,Austin,TX,United States,12625 N Interstate 35,South Indian Restaurant,South Indian Restaurants,South Indian,33
Anderson Mill,,Restaurant,Curry In A Hurry,30.46548,-97.80203,58162d7a38fafbedd9a6d63e,,,78750,Austin,TX,United States,"Austin, TX 78750",Indian Restaurant,Indian Restaurants,Indian,3
W Howard Ln,,Restaurant,Zaviya Grill,30.409003,-97.680222,5f66900e42ec8435851703be,1212 W Parmer Ln,,78727,Austin,TX,United States,1212 W Parmer Ln,Pakistani Restaurant,Pakistani Restaurants,Pakistani,33
W Howard Ln,,Restaurant,Chutneys,30.415958,-97.697668,5c5636299e0d54002c58a6c6,,,78727,Austin,TX,United States,"Austin, TX 78727",Vegetarian / Vegan Restaurant,Vegetarian / Vegan Restaurants,Vegetarian / Vegan,6
Allandale,,Restaurant,TejiÂ’s,30.359075,-97.729741,5f2b60fa952995556ec4adae,8023 Burnet Rd,,78757,Austin,TX,United States,8023 Burnet Rd,Indian Restaurant,Indian Restaurants,Indian,11
Northwest Hills,,Restaurant,IndiaGate Austin,30.43104906,-97.76461149,5ebb689f5ea51300085c757d,12636 Research Boulevard,,78759,Austin,TX,United States,12636 Research Boulevard,Indian Restaurant,Indian Restaurants,Indian,26
Round Rock,,Restaurant,Rock N Grill Indian Cuisine And Bar,30.523209,-97.68617,5b95682f911fc4002c102f56,1702 N Mays St,,78664,Round Rock,TX,United States,1702 N Mays St,Indian Restaurant,Indian Restaurants,Indian,23
Manchaca,,Restaurant,Puli-Ra,30.21642932,-97.7619803,59dd072ca6fe4d7ffcb8d427,12521 Twin Creeks Rd,,78652,Austin,TX,United States,12521 Twin Creeks Rd,South Indian Restaurant,South Indian Restaurants,South Indian,39
Windsor Hills,,Restaurant,Daawat Indian Cuisine,30.40669021,-97.67286244,514764a9e4b027a912272333,500 Canyon Ridge Dr Ste L275,,78753,Austin,TX,United States,500 Canyon Ridge Dr Ste L275,Indian Restaurant,Indian Restaurants,Indian,33
Round Rock,,Restaurant,Sweekar Indian Restaurant,30.48337173,-97.67378235,58668c2a158b9642d67bd11c,2601 S Interstate 35,,78664,Round Rock,TX,United States,2601 S Interstate 35,Indian Restaurant,Indian Restaurants,Indian,13
Cedar Park,,Restaurant,Teji's Indian Restaurant,30.527946,-97.815269,54b06f27498e85d1b9256843,1335 E Whitestone Blvd Bldg T130,,78613,Cedar Park,TX,United States,1335 E Whitestone Blvd Bldg T130,Indian Restaurant,Indian Restaurants,Indian,34
901 W Braker Ln,,Restaurant,Biryani Pot,30.41735892,-97.70403461,526d1d3511d2e3960e562488,12407 N MO Pac Expy,,78758,Austin,TX,United States,12407 N MO Pac Expy,Indian Restaurant,Indian Restaurants,Indian,6
Windsor Hills,,Restaurant,Indian Spicy Kitchen,30.40667561,-97.67282394,4d363ff13a76a35da217470d,500 Canyon Ridge Dr,,78753,Austin,TX,United States,500 Canyon Ridge Dr,Indian Restaurant,Indian Restaurants,Indian,33
Pflugerville,,Restaurant,Kumar's South Indian Village Cuisine,30.44720294,-97.6475102,571bb86a498e85edf30d7869,,,,Pflugerville,TX,United States,"Pflugerville, TX",South Indian Restaurant,South Indian Restaurants,South Indian,33
Oak Hill,,Restaurant,Curry Leaves,30.21410942,-97.83189392,5570931c498eb08a0ea17197,3601 W William Cannon Dr,Ste 450,78749,Austin,TX,United States,3601 W William Cannon Dr (Ste 450),Indian Restaurant,Indian Restaurants,Indian,29
Westgate,,Restaurant,Tarka Indian Kitchen,30.23103146,-97.81750868,4ab192a5f964a5200c6a20e3,5207 Brodie Ln Ste 120,Hwy 290 & Brodie Lane,78745,Sunset Valley,TX,United States,5207 Brodie Ln Ste 120 (Hwy 290 & Brodie Lane),Indian Restaurant,Indian Restaurants,Indian,29
Allandale,,Restaurant,Tarka Indian Kitchen,30.3570913,-97.73532225,4fba7fefe4b05dd0d72db3eb,2525 W Anderson Ln Bldg 1 Ste 300,Anderson & Northcross,78757,Austin,TX,United States,2525 W Anderson Ln Bldg 1 Ste 300 (Anderson & Northcross),Indian Restaurant,Indian Restaurants,Indian,11
Round Rock,,Restaurant,Chennai Cafe,30.47597649,-97.67029711,55de772d498e8f7206f9f3f0,,,78664,Round Rock,TX,United States,"Round Rock, TX 78664",South Indian Restaurant,South Indian Restaurants,South Indian,13
Barton Hills,,Restaurant,Coriander,30.23406846,-97.81386938,4fcfa46fe4b04a202efc21e9,4894 W Highway 290,,78735,Sunset Valley,TX,United States,4894 W Highway 290,Indian Restaurant,Indian Restaurants,Indian,29
Allandale,,Restaurant,Star Of India,30.35956928,-97.73667523,440ec935f964a520a0301fe3,2900 W Anderson Ln,at Rockwood,78757,Austin,TX,United States,2900 W Anderson Ln (at Rockwood),Indian Restaurant,Indian Restaurants,Indian,11
Brushy Creek,,Restaurant,Subprabhat,30.47839014,-97.76647085,54066cf9498e2804ff836c56,9225 W Parmer Ln Ste 108,,78717,Austin,TX,United States,9225 W Parmer Ln Ste 108,Indian Restaurant,Indian Restaurants,Indian,26
Allandale,,Restaurant,Saffron Indian & Nepalese Cuisine,30.35480045,-97.75600933,5565fe94498e38737acbb7c4,3616 Far West Blvd,,78731,Austin,TX,United States,3616 Far West Blvd,Indian Restaurant,Indian Restaurants,Indian,11
Oak Hill,,Restaurant,Biryani-N-Grill,30.2150205,-97.83337492,56e8b198498ecb451961689f,"13945 N US-183, Suite # C-5",,78749,Austin,TX,United States,"13945 N US-183, Suite # C-5",South Indian Restaurant,South Indian Restaurants,South Indian,29
Windsor Hills,,Restaurant,Masala Wok,30.41817012,-97.67035475,4b423cd6f964a520c3cf25e3,1100 Center Ridge Dr,,78753,Austin,TX,United States,1100 Center Ridge Dr,Indian Restaurant,Indian Restaurants,Indian,33
11th / 12th /14th / 15th  Street,,Restaurant,The Clay Pit,30.27900107,-97.74245328,4283ee00f964a520b8221fe3,1601 Guadalupe St,at 16th St,78701,Austin,TX,United States,1601 Guadalupe St (at 16th St),Indian Restaurant,Indian Restaurants,Indian,0
2nd / 4th / 5th / 7th Street,,Restaurant,Nasha,30.26372327,-97.72499846,543b2a2d498ef974a5513318,1614 E. 7th St,,78702,Austin,TX,United States,1614 E. 7th St,Indian Restaurant,Indian Restaurants,Indian,14
University Oaks Blvd,,Restaurant,Tarka Indian Kitchen,30.5555899,-97.68713575,4ce2a7934bde5941610d758d,201 University Oaks,I-35 & Hwy 1431,78665,Round Rock,TX,United States,201 University Oaks (I-35 & Hwy 1431),Indian Restaurant,Indian Restaurants,Indian,1
Downtown,,Restaurant,MasalaDhaba,30.25853355,-97.73875656,52e08a2f498ebf4345075ee6,75 Rainey St,,78701,Austin,TX,United States,75 Rainey St,Indian Restaurant,Indian Restaurants,Indian,17
Windsor Hills,,Restaurant,Bombay Express,30.41112511,-97.67602033,49ce2f24f964a5201c5a1fe3,13000 N I-35 Bldg 12,Parmer Ln,78753,Austin,TX,United States,13000 N I-35 Bldg 12 (Parmer Ln),Indian Restaurant,Indian Restaurants,Indian,33
St. Johns,,Restaurant,Taj Palace,30.3288515,-97.7073094,4a8f4cd8f964a520cc1420e3,6700 Middle Fiskville Rd,,78752,Austin,TX,United States,6700 Middle Fiskville Rd,Indian Restaurant,Indian Restaurants,Indian,35
Round Rock,,Restaurant,Teji's Indian Restaurant,30.51077544,-97.69447886,4b3bf6c6f964a5205a7f25e3,1205 Round Rock Ave,F.M. 620,78681,Round Rock,TX,United States,1205 Round Rock Ave (F.M. 620),Indian Restaurant,Indian Restaurants,Indian,23
Northwest Hills,,Restaurant,Bombay Bistro - Research Blvd,30.39890422,-97.74732035,4513f1adf964a520c9391fe3,10710 Research Blvd #126,,78759,Austin,TX,United States,10710 Research Blvd #126,Indian Restaurant,Indian Restaurants,Indian,25
2nd / 4th / 5th / 7th Street,,Liquer,Easy Tiger - East,30.264004,-97.726967,601b2953e6390f52e004ea4b,1501 E 7th St,,78702,Austin,TX,United States,1501 E 7th St,Beer Garden,Beer Gardens,Beer Garden,14
Easton Park,,Liquer,Meanwhile Brewing Company,30.208827,-97.729805,5f89eba7664f43224503038c,3901 Prominary Point Dr,,78744,Austin,TX,United States,3901 Prominary Point Dr,Brewery,Breweries,Brewery,39
Lamar Boulevard,Zilker,Liquer,Bouldin Acres,30.24850655,-97.76868439,5e2653a773576f00088ec084,2027 S Lamar Blvd,W Mary St,78704,Austin,TX,United States,2027 S Lamar Blvd (W Mary St),Beer Garden,Beer Gardens,Beer Garden,9
Downtown,,Restaurant,The Peacock,30.266044,-97.750168,5dfed6b15ac6890008f7a59e,,,78701,Austin,TX,United States,"Austin, TX 78701",Mediterranean Restaurant,Mediterranean Restaurants,Mediterranean,17
Red River St,,Liquer,Central District Brewing,30.264929,-97.737146,5c86f87279f6c7002c2d5733,417 Red River St,5th St,78701,Austin,TX,United States,417 Red River St (5th St),Brewery,Breweries,Brewery,17
901 W Braker Ln,,Liquer,Austin Beerworks,30.37942723,-97.72984382,4d7826e0b706224bc0b1248d,3009 Industrial Ter,,78758,Austin,TX,United States,3009 Industrial Ter,Brewery,Breweries,Brewery,25
St. Johns,,Liquer,Easy Tiger Linc,30.32768548,-97.70735389,5c0460a0029a55002c8f90f3,6406 N Interstate 35 Frontage Rd,,78752,Austin,TX,United States,6406 N Interstate 35 Frontage Rd,Beer Garden,Beer Gardens,Beer Garden,35
6th Street,,Liquer,Lazarus Brewing Company,30.26176993,-97.72226677,5859d9094988da049587b29e,1902 E 6th St,Chicon,78702,Austin,TX,United States,1902 E 6th St (Chicon),Brewery,Breweries,Brewery,14
Mueller,,Liquer,WhichCraft Beer Store,30.29716896,-97.70446046,5823dee3b4f9620f88cf7784,1900 Simond Ave Ste 200,,78723,Austin,TX,United States,1900 Simond Ave Ste 200,Beer Bar,Beer Bars,Beer Bar,35
Downtown,,Liquer,Kitty Cohen's,30.26182488,-97.71640268,5760a4a4498e28b690a32654,2211 Webberville Rd,,78702,Austin,TX,United States,2211 Webberville Rd,Cocktail Bar,Cocktail Bars,Cocktail,14
St. Johns,,Liquer,The Brewtorium,30.32577074,-97.71708328,59a1d7a7d3cce849cac4d514,6015 Dillard Cir,,78752,Austin,TX,United States,6015 Dillard Cir,Brewery,Breweries,Brewery,35
Cesar Chavez St,,Liquer,Central Machine Works,30.251755,-97.70201,5dcf21ba0cd86e0008e36ecb,4824 E Cesar Chavez St,,78702,Austin,TX,United States,4824 E Cesar Chavez St,Brewery,Breweries,Brewery,14
Westgate,,Liquer,the Little Darlin',30.19445091,-97.77677862,571acccc498e65ecaa2bee42,6507 Circle S Rd,,78745,Austin,TX,United States,6507 Circle S Rd,Bar,Bars,Bar,22
Congress Avenue,,Liquer,P6,30.263071,-97.744064,5c590d809d7468003903c115,"111 E Cesar Chavez St, Austin, TX 78701",Congress Ave,78701,Austin,TX,United States,"111 E Cesar Chavez St, Austin, TX 78701 (Congress Ave)",Cocktail Bar,Cocktail Bars,Cocktail,17
Barton Springs,,Liquer,Barton Springs Saloon,30.2612352,-97.75872628,44db489ff964a52093361fe3,1300 Barton Springs Road,at South Lamar Blvd,78704,Austin,TX,United States,1300 Barton Springs Road (at South Lamar Blvd),Dive Bar,Dive Bars,Dive Bar,17
Moores Crossing,,Liquer,Sky Bar,30.20238483,-97.66682282,4d5f0e02338bb60ce52517bd,3600 Presidential Blvd,,78719,Austin,TX,United States,3600 Presidential Blvd,Bar,Bars,Bar,8
Downtown,,Liquer,unBARlievable,30.25884411,-97.73882866,58c37a5f126ae8310d99123b,76 Rainey St,,78701,Austin,TX,United States,76 Rainey St,Bar,Bars,Bar,17
6th Street,,Liquer,Whisler's,30.2619187,-97.72256097,517cc426e4b0eef579599328,1816 E 6th St,at Chicon St,78702,Austin,TX,United States,1816 E 6th St (at Chicon St),Cocktail Bar,Cocktail Bars,Cocktail,14
Westgate,,Liquer,St. Elmo Brewing Company,30.21758267,-97.76111041,574492ec498e7a2a41fc4bbd,440 E Saint Elmo Rd Ste G-2,,78745,Austin,TX,United States,440 E Saint Elmo Rd Ste G-2,Brewery,Breweries,Brewery,39
Cesar Chavez St,,Restaurant,Sawyer & Co.,30.25136079,-97.70180118,53075b12498e717329657cd5,4827 E Cesar Chavez St,,78702,Austin,TX,United States,4827 E Cesar Chavez St,Cajun / Creole Restaurant,Cajun / Creole Restaurants,Cajun / Creole,14
Oak Hill,,Liquer,Jester King Brewery,30.23048682,-97.99921477,4d4466d4befe236a3972f4e2,13005 Fitzhugh Rd,,78736,Austin,TX,United States,13005 Fitzhugh Rd,Brewery,Breweries,Brewery,19
901 W Braker Ln,,Entertainment,Topgolf,30.3983629,-97.7174922,517bf347067de0f60f1da583,2700 Esperanza Xing,Esperanza Crossing,78758,Austin,TX,United States,2700 Esperanza Xing (Esperanza Crossing),Golf Driving Range,Golf Driving Ranges,Golf Driving Range,25
Round Rock,,Restaurant,Pinthouse Pizza,30.53953053,-97.69439404,5c4c6f3b1ffe970039850fd1,2800 Hoppe Trl,,78681,Round Rock,TX,United States,2800 Hoppe Trl,Pizza Place,Pizza Places,Pizza,23
Westgate,,Nightlife,Off The Hookah Lounge And Smoke Shop,30.22476737,-97.80319574,4de1d0a0c65b7a3e210cb339,2621 Jones Rd Ste A,,78745,Austin,TX,United States,2621 Jones Rd Ste A,Hookah Bar,Hookah Bars,Hookah Bar,29
11th / 12th /14th / 15th  Street,,Liquer,Nickel City,30.26864771,-97.72798179,59728bf54420d810a5c24096,1133 E 11th St,,78702,Austin,TX,United States,1133 E 11th St,Dive Bar,Dive Bars,Dive Bar,14
6th Street,,Liquer,The Liberty,30.26263639,-97.72508716,4a50231cf964a520ffaf1fe3,1618 1/2 E 6th St,,78702,Austin,TX,United States,1618 1/2 E 6th St,Dive Bar,Dive Bars,Dive Bar,14
6th Street,,Liquer,Zilker Brewing Co.,30.26221762,-97.7245416,52fd69af11d29b02b6a6d98d,1701 E 6th St,,78702,Austin,TX,United States,1701 E 6th St,Brewery,Breweries,Brewery,14
Downtown,,Liquer,Craft Pride,30.2578956,-97.73886221,5125600de4b0b833e8efa5fa,61 Rainey St,,78701,Austin,TX,United States,61 Rainey St,Beer Garden,Beer Gardens,Beer Garden,17
Downtown,,Liquer,Garage,30.26788482,-97.7442036,5316acb3498e50d55233c023,503 Colorado St,,78701,Austin,TX,United States,503 Colorado St,Cocktail Bar,Cocktail Bars,Cocktail,17
6th Street,Downtown Austin,Café,Firehouse Hostel and Lounge,30.26809634,-97.74128348,427d5680f964a520a7211fe3,605 Brazos St Ste 100,6th St.,78701,Austin,TX,United States,605 Brazos St Ste 100 (6th St.),Lounge,Lounges,Lounge,17
Congress Avenue,,Café,Llano Lounge,30.26503561,-97.74403585,5753470438fa88b83ff92222,217 Congress Ave,,78701,Austin,TX,United States,217 Congress Ave,Lounge,Lounges,Lounge,17
Dripping Springs,,Café,Hill Country Tasting Room,30.14777756,-98.03130341,5b91db8df193c0002c2c402a,18992 FM 150 W,,78619,Driftwood,TX,United States,18992 FM 150 W,Lounge,Lounges,Lounge,36
Red River St,,Liquer,Rules & Regs,30.262408,-97.738486,5b8cd69fbd40090039a12d68,101 Red River St,,78701,Austin,TX,United States,101 Red River St,Cocktail Bar,Cocktail Bars,Cocktail,17
Anderson Mill,,Café,Regency Club,30.16469,-97.445508,5b3807250868a20039c602c7,,,78612,Cedar Creek,TX,United States,"Cedar Creek, TX 78612",Lounge,Lounges,Lounge,28
Round Rock,,Café,pergola of the gods,30.54723928,-97.69171993,4fa58f36e4b08e1f88f870b2,,,78681,Round Rock,TX,United States,"Round Rock, TX 78681",Lounge,Lounges,Lounge,1
2nd / 4th / 5th / 7th Street,,Liquer,PÃ©chÃ©,30.26683294,-97.74526629,4a3c3dc9f964a5204ea11fe3,208 W 4th St,Colorado St.,78701,Austin,TX,United States,208 W 4th St (Colorado St.),Cocktail Bar,Cocktail Bars,Cocktail,17
6th Street,,Liquer,Bijou Lounge,30.266666,-97.738884,5d731cf52f880f0008b051c0,415 E 6th St,,78701,Austin,TX,United States,415 E 6th St,Bar,Bars,Bar,17
6th Street,,Café,Devil May Care,30.26957089,-97.74749959,5dcb63f20053d400084d4a4f,500 W 6th St,,78701,Austin,TX,United States,500 W 6th St,Lounge,Lounges,Lounge,17
Downtown,,Café,Augustine Cocktail Lounge,30.259679,-97.738585,5d0ed8d5ab2fc700236ce40a,,,78701,Austin,TX,United States,"Austin, TX 78701",Lounge,Lounges,Lounge,17
Oak Hill,,Café,the clubhouse at monterey Ranch,30.23298264,-97.83589172,506f79fae4b017acd4d62b9e,,,78749,Austin,TX,United States,"Austin, TX 78749",Lounge,Lounges,Lounge,29
Cesar Chavez St,,Café,The Cigar Vault East,30.254135,-97.716698,600f2c84a933650e3dbe1c73,2501 E Cesar Chavez St,,78702,Austin,TX,United States,2501 E Cesar Chavez St,Lounge,Lounges,Lounge,14
6th Street,,Liquer,Valhalla Esports Lounge,30.27025,-97.750081,5d870634029a4a0007534913,710B W 6th St,,78701,Austin,TX,United States,710B W 6th St,Sports Bar,Sports Bars,Sports Bar,17
Bee Cave Road,,Café,MERIDIAN 98,30.30982013,-97.93570346,55fc7f57498ed5a53e6580d0,12525 Bee Cave Pkwy,,78738,Bee Cave,TX,United States,12525 Bee Cave Pkwy,Lounge,Lounges,Lounge,2
East Riverside-Oltorf,,Café,The American Legion,30.206084,-97.740472,4eed5704722ea77617988697,4401 E. St. Elmo Rd.,Burleson Rd.,78741,Austin,TX,United States,4401 E. St. Elmo Rd. (Burleson Rd.),Lounge,Lounges,Lounge,39
2nd / 4th / 5th / 7th Street,,Café,Azul Rooftop Pool Bar + Lounge,30.26657583,-97.74031847,5701cfe1cd103bfbdce98bd1,310 E 5th St,,78701,Austin,TX,United States,310 E 5th St,Lounge,Lounges,Lounge,17
2nd / 4th / 5th / 7th Street,,Café,Sellers Underground,30.26647311,-97.74543657,584a00fb65e7c76fc4d711c2,213 W 4th St,,78701,Austin,TX,United States,213 W 4th St,Lounge,Lounges,Lounge,17
Pflugerville,,Café,Bahadi's Chicken and Lounge,30.44335802,-97.60906121,58bf4e5599584243c9c6b407,907 Farm to Market 685,,78660,Pflugerville,TX,United States,907 Farm to Market 685,Lounge,Lounges,Lounge,5
Pflugerville,,Café,Sam & TJs Casino and BBQ,30.46341896,-97.62770081,4ee545179adf3982004d88ac,,,78660,,Texas,United States,TX 78660,Lounge,Lounges,Lounge,5
Travis County,Travis County,Café,Starlight Lounge,30.40550525,-97.87454631,4da8fddc0cb6a89c624bd88f,,,,Austin,TX,United States,"Austin, TX",Lounge,Lounges,Lounge,20
2nd / 4th / 5th / 7th Street,,Café,Hilton Executive Lounge,30.26552686,-97.73804566,4c8e1976d2aea093b42ecb69,500 E 4th St,25th Fl.,78701,Austin,TX,United States,500 E 4th St (25th Fl.),Lounge,Lounges,Lounge,17
Cedar Park,,Café,Club PatrÃ³n,30.54138311,-97.82039822,511af513e4b082c08a16c4aa,H-E-B Center at Cedar Park,,78613,Cedar Park,TX,United States,H-E-B Center at Cedar Park,Lounge,Lounges,Lounge,34
Cedar Park,,Liquer,Miller Lite Club Lounge,30.54137664,-97.82030926,4da10da8c6e96ea8371ab95d,2100 Avenue of the Stars,183A,78613,Cedar Park,TX,United States,2100 Avenue of the Stars (183A),Sports Bar,Sports Bars,Sports Bar,34
Mueller,,Liquer,Knomad Bar,30.31258883,-97.70491032,49bdbd93f964a52093541fe3,1213 Corona Dr,Cameron Rd,78723,Austin,TX,United States,1213 Corona Dr (Cameron Rd),Bar,Bars,Bar,35
Cesar Chavez St,,Liquer,Drinks Lounge,30.25647022,-97.72329113,541b965f498e07904302a5f4,2001 E Cesar Chavez St,,78702,Austin,TX,United States,2001 E Cesar Chavez St,Dive Bar,Dive Bars,Dive Bar,14
Allandale,,Café,The Aristocrat Lounge,30.34024057,-97.73861655,547933aa498e8d78ee0f10c0,6507 Burnet Rd,,78757,Austin,TX,United States,6507 Burnet Rd,Lounge,Lounges,Lounge,11
Red River St,,Liquer,Sheraton Hotel Bar,30.27059327,-97.734427,4b9b1352f964a520c9f035e3,701 E 11th St,btw Red River and I35,78701,Austin,TX,United States,701 E 11th St (btw Red River and I35),Hotel Bar,Hotel Bars,Hotel Bar,17
Lavaca Street,,Restaurant,Taverna,30.2651039,-97.7463474,43a49c90f964a520512c1fe3,258 W 2nd St,Lavaca St,78701,Austin,TX,United States,258 W 2nd St (Lavaca St),Italian Restaurant,Italian Restaurants,Italian,17
2nd / 4th / 5th / 7th Street,,Restaurant,La Condesa,30.26546609,-97.74773381,49e32bbaf964a52068621fe3,400 W 2nd St,Guadalupe St.,78701,Austin,TX,United States,400 W 2nd St (Guadalupe St.),Mexican Restaurant,Mexican Restaurants,Mexican,17
Brushy Creek,,Restaurant,Foxhole Culinary Tavern,30.47448939,-97.79836966,53cda732498ef4d74b7be39e,"13995 N Hwy 183 Austin, TX 78717",,78717,Austin,TX,United States,"13995 N Hwy 183 Austin, TX 78717",American Restaurant,American Restaurants,American,3
Downtown,,Café,The Lobby Lounge at Four Seasons Hotel Austin,30.26170032,-97.74253189,4b9962bef964a520897735e3,98 San Jacinto Blvd,at E Cesar Chavez St,78701,Austin,TX,United States,98 San Jacinto Blvd (at E Cesar Chavez St),Lounge,Lounges,Lounge,17
6th Street,,Café,The Volstead Lounge,30.26346604,-97.72725635,4d6e81691c1041bd7a9c5d28,1500 E 6th St,,78702,Austin,TX,United States,1500 E 6th St,Lounge,Lounges,Lounge,14
Downtown,,Restaurant,Jeffrey's,30.28044731,-97.75911159,518056c3e4b04bf50f1f5c24,1204 W Lynn St,,78703,Austin,TX,United States,1204 W Lynn St,American Restaurant,American Restaurants,American,27
Lavaca Street,,Liquer,Living Room,30.26540447,-97.74641866,4d02bc43347da1cdf313218f,200 Lavaca St,2nd Street,78701,Austin,TX,United States,200 Lavaca St (2nd Street),Hotel Bar,Hotel Bars,Hotel Bar,17
Mueller,,Liquer,Skylark Lounge,30.28463211,-97.70453119,51c65a99498e8699219352bb,2039 Airport Blvd,,78722,Austin,TX,United States,2039 Airport Blvd,Bar,Bars,Bar,14
Lamar Boulevard,Zilker,Liquer,The Highball,30.2560247,-97.76303471,4abaa233f964a520318220e3,1120 S Lamar Blvd,at Treadwell St.,78704,Austin,TX,United States,1120 S Lamar Blvd (at Treadwell St.),Cocktail Bar,Cocktail Bars,Cocktail,17
6th Street,,Liquer,The Brixton,30.26357514,-97.72753226,4adbaa09f964a520e02921e3,1412 E 6th St,at Onion St,78702,Austin,TX,United States,1412 E 6th St (at Onion St),Dive Bar,Dive Bars,Dive Bar,14
901 W Braker Ln,,Building,The Kenzie at the Domain Apartments,30.39872592,-97.72317623,525bdbe7498e3a02634a2520,3201 Esperanza Crossing,,78758,Austin,TX,United States,3201 Esperanza Crossing,Residential Building (Apartment / Condo),Residential Buildings (Apartments / Condos),Residential,25
East Riverside-Oltorf,,Market,Lady Bird Lake Boardwalk Trail,30.246893,-97.729773,53933115498e7b5d5b88e3db,1500 E Riverside Dr,,78741,Austin,TX,United States,1500 E Riverside Dr,Pedestrian Plaza,Pedestrian Plazas,Pedestrian Street/Plaza,14
East Riverside-Oltorf,,Entertainment,Lady Bird Lake Trail,30.27441231,-97.76937246,4b7dc99af964a520a9d42fe3,Lady Bird Lake,,78746,Austin,TX,United States,Lady Bird Lake,Trail,Trails,Trail,27
East Riverside-Oltorf,,Entertainment,Ladybird Lake Hike & Bike Trail (Rainey St.),30.25891677,-97.74092495,4e88936c61afa8c25f422bd4,,,,Austin,TX,United States,"Austin, TX",Trail,Trails,Trail,17
Hancock,Hancock,Health,Duncan Dog Park,30.29201974,-97.72691963,553988a8498e04e927af4a42,,,,Austin,TX,United States,"Austin, TX",Dog Run,Dog Runs,Dog Run,0
East Riverside-Oltorf,,Entertainment,Lou Neff Point,30.26719807,-97.76177986,4b19a477f964a5200ce123e3,Lady Bird Lake,Barton Springs Trail,,Austin,TX,United States,Lady Bird Lake (Barton Springs Trail),Scenic Lookout,Scenic Lookouts,Scenic Lookout,17
Allandale,,Park,Mount Bonnell,30.3209317,-97.77331626,58f39a7ef62f2b63ec305119,,,78731,Austin,TX,United States,"Austin, TX",Mountain,Mountains,Mountain,27
Cedar Park,,Park,Cedar Elm Preserve Trail,30.495496,-97.838854,6047f63bf8821215f761dd03,,,78613,Cedar Park,TX,United States,"Cedar Park, TX 78613",Nature Preserve,Nature Preserves,Preserve,3
Windsor Hills,,Park,McCallen Pass Pond,30.40531229,-97.66408607,528904c2498e3e1c57031528,,,78753,Austin,TX,United States,"Austin, TX",Lake,Lakes,Lake,33
Manchaca,,Building,Circle C Ranch,30.1985629,-97.87995954,4d897acdd85f370422ace8db,,,78739,Austin,TX,United States,"Austin, TX 78739",Housing Development,Housing Developments,Housing Development,30
East Riverside-Oltorf,,Building,Pfluger Pedestrian Bridge,30.26561472,-97.75582209,4b995135f964a5207d7235e3,1250 W. Riverside Dr.,at S. Lamar Blvd.,,Austin,TX,United States,1250 W. Riverside Dr. (at S. Lamar Blvd.),Bridge,Bridges,Bridge,17
Cedar Park,,Entertainment,Brushy Creek Regional Trail,30.49662571,-97.80923467,4d98f2b8af3d236a37c648c7,,,,,Texas,United States,Texas,Trail,Trails,Trail,3
Hutto,,Park,Paloma Lake,30.56316631,-97.61338592,4ba41d3af964a520ef8238e3,,,78634,Hutto,TX,United States,"Hutto, TX 78634",Lake,Lakes,Lake,32
Cedar Park,,Building,The Ranch at Brushy Creek,30.52231026,-97.7659357,4b99c25bf964a5207b9035e3,,,78613,Cedar Park,TX,United States,4106 Remington Rd,Housing Development,Housing Developments,Housing Development,15
Pecan Brook Dr,,Entertainment,Delco Center,30.31743374,-97.66055422,4d59c707c88da1cda1e53d68,4601 Pecan Brook Dr,,,Austin,TX,United States,4601 Pecan Brook Dr,Basketball Court,Basketball Courts,Basketball Court,31
Barton Hills,,Entertainment,Austin Country Club,30.34285273,-97.79726734,4aa47300f964a520d94620e3,4408 Long Champ Dr,,78746,Austin,TX,United States,4408 Long Champ Dr,Golf Course,Golf Courses,Golf Course,38
Downtown,,Park,Oyster Landing Marina,30.29544855,-97.78407589,4e499bc2a80997a2dbe88337,3825 Lake Austin Blvd #401,,78703,Austin,TX,United States,3825 Lake Austin Blvd #401,Harbor / Marina,Harbors / Marinas,Harbor / Marina,27
Windsor Hills,,Park,Georgian Acres Park,30.345799,-97.704436,593c32111c0b3415ef22775b,500 East Powell,,78753,Austin,TX,United States,500 East Powell,Park,Parks,Park,18
Leander,,Park,Lakewood Park,30.558572,-97.810113,5f54f9be88944a58b54a811a,2040 Artesian Spring Crossing,,78641,Leander,TX,United States,2040 Artesian Spring Crossing,Park,Parks,Park,34
W Howard Ln,,Park,Adelphi Greenbelt,30.425885,-97.724564,4cfea79e2d80a143cff95dd8,4611 Adelphi Ln,Ganymede,78727,Austin,TX,United States,4611 Adelphi Ln (Ganymede),Park,Parks,Park,6
Leander,Horizon Park,Park,Union Park,30.5553,-97.839202,5f1ce3fe422a8361edf110ad,Union Street,Presidio Street,78641,Leander,TX,United States,Union Street (Presidio Street),Park,Parks,Park,34
East Riverside-Oltorf,,Health,Auditorium Shores Dog Park,30.26381019,-97.75378469,4bb3d775eb3e9521adb7cb0a,800 W Riverside Dr.,,78704,Austin,TX,United States,800 W Riverside Dr.,Dog Run,Dog Runs,Dog Run,17
Acres West,,Park,Arboretum Park,30.4495966,-97.79165072,4bd8bdc411dcc928d797f733,9707,Anderson Mill,,Austin,TX,United States,9707 (Anderson Mill),Park,Parks,Park,26
Anderson Mill,,Park,Mountain View Park,30.43046965,-97.79150605,4ba77ab0f964a520fb9639e3,9000 Middlebie Rd.,,78750,Austin,TX,United States,9000 Middlebie Rd.,Park,Parks,Park,26
Pflugerville,,Park,Creekside Park,30.43430054,-97.62723671,4d35bfe1329e5481abb1cd1d,,,,,Texas,United States,Texas,Park,Parks,Park,5
Allandale,,Park,Covert Park at Mt. Bonnell,30.32111858,-97.77348161,4a5a7dabf964a5206eba1fe3,3800 Mount Bonnell Rd,,78731,Austin,TX,United States,3800 Mount Bonnell Rd,Park,Parks,Park,27
Allandale,Brentwood,Park,Brentwood Park,30.34098705,-97.73233187,4b6f3127f964a52046e32ce3,6710 Arroyo Seco,,78757,Austin,TX,United States,6710 Arroyo Seco,Park,Parks,Park,11
901 W Braker Ln,,Park,Central Park at The Domain,30.39875701,-97.72316119,5158cb39e4b038a1a1d1c435,11100 Alterra Parkway,,78758,Austin,TX,United States,11100 Alterra Parkway,Park,Parks,Park,25
Downtown,,Park,Rosewood Park,30.27218915,-97.71514886,4b9d5c44f964a520baa636e3,2300 Rosewood Ave,,78702,Austin,TX,United States,2300 Rosewood Ave,Park,Parks,Park,14
Oak Hill,,Entertainment,Circle C Ranch Metropolitan Park on Slaughter Creek,30.20544641,-97.88492009,4ad0a64cf964a520e8d820e3,6301 W. Slaughter Ln.,,78749,Austin,TX,United States,6301 W. Slaughter Ln.,Trail,Trails,Trail,30
Mueller,,Park,Mueller Southwest Greenway,30.2898919,-97.69975137,4d28e729467d6ea8e0c1ca95,Tom Miller St,btwn Zach Scott St & Berkman St,78723,Austin,TX,United States,Tom Miller St (btwn Zach Scott St & Berkman St),Park,Parks,Park,35
Westgate,,Park,Longview Park,30.20239185,-97.82628894,4ba8ddeaf964a52062f539e3,7609 Longview Rd.,,78745,Austin,TX,United States,7609 Longview Rd.,Park,Parks,Park,29
901 W Braker Ln,,Park,Walnut Creek Metropolitan Park,30.40102542,-97.68427775,4ae37a96f964a520a39521e3,12138 N Lamar Blvd,Lamar and Parmer,78758,Austin,TX,United States,12138 N Lamar Blvd (Lamar and Parmer),Park,Parks,Park,6
Barton Hills,,Entertainment,Barton Creek Greenbelt,30.24469895,-97.80055365,4ae33705f964a520c69121e3,3753 S. Capital of Texas Hwy.,,78746,Austin,TX,United States,3753 S. Capital of Texas Hwy.,Trail,Trails,Trail,9
Hancock,,Park,Hancock Park and Recreation Center,30.29907481,-97.72426837,4c1b981deac020a1501145c2,811 E 41st St,,78751,Austin,TX,United States,811 E 41st St,Park,Parks,Park,0
Cedar Park,,Park,Elizabeth Milburn Park,30.47816298,-97.84165324,4b927902f964a52043fc33e3,1901 Sun Chase Blvd.,,78613,Cedar Park,TX,United States,1901 Sun Chase Blvd.,Park,Parks,Park,3
University Oaks Blvd,,Park,Pepper Rock Park,30.50111667,-97.74038446,4b919160f964a52040c633e3,,Great Oaks Blvd / Pepper Rock Dr,,Round Rock,TX,United States,"Round Rock, TX",Park,Parks,Park,15
Oak Hill,,Park,Mary Moore Searight Metropolitan Park,30.15212696,-97.80590456,4af5b315f964a52084fb21e3,907 Slaughter Ln.,,78748,Austin,TX,United States,907 Slaughter Ln.,Park,Parks,Park,22
Cedar Park,,Park,Champion Park,30.51005021,-97.75838614,4b53786af964a520869e27e3,3900 Brushy Creek Rd,,78613,Cedar Park,TX,United States,3900 Brushy Creek Rd,Park,Parks,Park,15
901 W Braker Ln,,Entertainment,Walnut Creek Trails,30.4039719,-97.69561904,510ee735e4b01a7ace8380bb,,,78758,Austin,TX,United States,"Austin, TX 78758",Trail,Trails,Trail,6
Round Rock,,Park,Williamson County Regional Park,30.55942236,-97.76396168,4ba69b9ff964a5207c6239e3,2 Perry Mayfield,CR 175,78681,Round Rock,TX,United States,2 Perry Mayfield (CR 175),Park,Parks,Park,15
Anderson Mill,,Park,Millrun Park,30.45154837,-97.80297467,4e9c6074f5b9d590054b6c83,12100 Millwright Pkwy.,,78750,Austin,TX,United States,12100 Millwright Pkwy.,Park,Parks,Park,3
Oak Hill,,Park,Dick Nichols Park,30.21351443,-97.86352712,4ada435df964a520a82021e3,8011 Beckett Rd.,,78749,Austin,TX,United States,8011 Beckett Rd.,Park,Parks,Park,30
Hancock,,Park,Central Park,30.30424455,-97.73865457,4bdb38da3904a593d956499e,3898 Guadalupe St,at 38th St.,78705,Austin,TX,United States,3898 Guadalupe St (at 38th St.),Park,Parks,Park,0
Cedar Park,,Park,Veterans Memorial Park,30.52083789,-97.86946298,4b9b4e16f964a52069ff35e3,2525 W New Hope Dr,,78613,Cedar Park,TX,United States,2525 W New Hope Dr,Park,Parks,Park,34
Round Rock,,Park,Brightwater Park,30.51865256,-97.72600973,4b4888c4f964a520da4e26e3,Brightwater Blvd,Sea Ash Circle,78681,Round Rock,TX,United States,Brightwater Blvd (Sea Ash Circle),Park,Parks,Park,23
Downtown,,Park,Zilker Sand Volleyball Courts,30.26897146,-97.7682302,4bb7e1b0cf2fc9b6b7f59e02,2169-2293 Lou Neff Rd,at Stratford Dr,78703,Austin,TX,United States,2169-2293 Lou Neff Rd (at Stratford Dr),Park,Parks,Park,17
Northwest Hills,,Park,Schroeter Park,30.413223,-97.737733,4bcf1702ef10952116118586,11701 Big Trail,,78759,Austin,TX,United States,11701 Big Trail,Park,Parks,Park,25
Barton Springs,,Park,Rock Island,30.26748177,-97.76786732,4da2fdac0f578cfa6f58ae18,2100 Barton Springs Road,,78704,Austin,TX,United States,2100 Barton Springs Road,Park,Parks,Park,17
Palm Valley,,Park,Old Settlers Park,30.5352812,-97.62794495,4b2560fbf964a520ec7024e3,3300 E Palm Valley Blvd,Harrell Pkwy,78665,Round Rock,TX,United States,3300 E Palm Valley Blvd (Harrell Pkwy),Park,Parks,Park,32
Allandale,,Park,Northwest District Park,30.34877707,-97.74147133,4a9a8166f964a520c43120e3,7000 Ardath St,,78757,Austin,TX,United States,7000 Ardath St,Park,Parks,Park,11
Barton Hills,,Park,Commons Ford Ranch,30.33921335,-97.88549066,4bed6904bac3c9b60937fee9,614 N. Commons Ford Rd.,,78733,Austin,TX,United States,614 N. Commons Ford Rd.,Park,Parks,Park,2
Mueller,,Park,Dottie Jordan Park,30.31422798,-97.67391801,4bf800feb182c9b62c9e765a,2803 Loyola Ln,,78723,Austin,TX,United States,2803 Loyola Ln,Park,Parks,Park,31
Pflugerville,,Entertainment,Pflugerville Soccer Fields,30.44087573,-97.64580729,4c9def652fb1a1431c08e540,,,78660,Pflugerville,TX,United States,"Pflugerville, TX 78660",Soccer Field,Soccer Fields,Soccer Field,33
Pflugerville,,Park,Northtown Park,30.42034932,-97.63431795,4ef2287449010b41f536eca3,,,78660,Pflugerville,TX,United States,"Pflugerville, TX 78660",Park,Parks,Park,33
Downtown,,Entertainment,Deep Eddy Pool,30.27684573,-97.77294603,4a2e9cc3f964a52022981fe3,401 Deep Eddy Ave,Lake Austin Blvd,78703,Austin,TX,United States,401 Deep Eddy Ave (Lake Austin Blvd),Pool,Pools,Pool,27
Cesar Chavez St,Downtown,Library,Central Library,30.26599063,-97.75176338,51a77615498e47fb2df9e84d,710 W Cesar Chavez St,,78701,Austin,TX,United States,710 W Cesar Chavez St,Library,Libraries,Library,17
Downtown,,Library,Texas State Library and Archives Commission,30.27394259,-97.73854907,4d66926f05a7f04d1211b48f,1201 Brazos St,,78701,Austin,TX,United States,1201 Brazos St,Library,Libraries,Library,0
Windsor Hills,,Library,TCEQ Library,30.39417929,-97.67528997,50538353e4b012cb8185cab2,,,78753,Austin,TX,United States,"Austin, TX 78753",Library,Libraries,Library,33
Northwest Hills,,Library,Spicewood Springs Branch Library,30.433709,-97.773112,5c9a59cd1ffe9700397d0ad3,8637 Spicewood Springs Rd,,78759,Austin,TX,United States,8637 Spicewood Springs Rd,Library,Libraries,Library,26
Allandale,,Library,Americana Austin Public Library,30.323386,-97.741175,6043d69d449d6c6ae4313b4a,,,78756,Austin,TX,United States,"Austin, TX 78756",Library,Libraries,Library,35
Jonestown,Jonestown,Library,Ione Jones Library,30.49274,-97.92341,4bc0cd1b920eb7132698192c,,,78645,Jonestown,TX,United States,"Jonestown, TX",Library,Libraries,Library,20
14611 N Mopac Expy,,Library,AI Library,30.47892305,-97.67571347,4f3c28dce4b0aedfd04d1af2,,,78728,Austin,TX,United States,"Austin, TX 78728",Library,Libraries,Library,13
W Howard Ln,,Library,Learning To Fly Sculpters By Lori Norwood,30.421269,-97.716107,5e8cd3e484643d00088d6524,,,78727,Austin,TX,United States,"Austin, TX 78727",Library,Libraries,Library,6
Buda / Kyle,,Library,Buda Public Library,30.08253316,-97.84243909,4b9a8016f964a52030bb35e3,303 Main St.,,78610,Buda,TX,United States,303 Main St.,Library,Libraries,Library,37
St. Johns,,Library,"St. John Branch, Austin Public Library",30.33192764,-97.69334577,4b646db9f964a52061b22ae3,7500 Blessing Ave,,78752,Austin,TX,United States,7500 Blessing Ave,Library,Libraries,Library,35
Dripping Springs,,Library,Dripping Springs Community Library,30.19608814,-98.09873466,4dadfde84b229076785e1946,501 Sportsplex Dr,,78620,Dripping Springs,TX,United States,501 Sportsplex Dr,Library,Libraries,Library,12
Allandale,,Library,Texas State Library And Archives Commission,30.31665412,-97.74845173,4e4abd06a80997a2dbf62ff9,,,78756,Austin,TX,United States,"Austin, TX",Library,Libraries,Library,27
Round Rock,,Library,Forest North Library,30.47028484,-97.78190416,4d40908089616dcb89ce05b5,13414 Broadmeade Ave,,78729,Austin,TX,United States,13414 Broadmeade Ave,Library,Libraries,Library,26
Allandale,,Library,ACA Freethought library,30.331369,-97.733088,520d771f11d2eeb57287981a,1507 W Koenig Ln,,78756,Austin,TX,United States,1507 W Koenig Ln,Library,Libraries,Library,35
901 W Braker Ln,,Library,The Little Library on Minda,30.388384,-97.690534,580cc16638fa122cfb01a2b0,,,78758,Austin,TX,United States,"Austin, TX",Library,Libraries,Library,6
901 W Braker Ln,,Library,Little Library on Doonesbury,30.391282,-97.68945,57e9c4aa498e4f5b59950aca,,,78758,Austin,TX,United States,"Austin, TX",Library,Libraries,Library,6
Manchaca,,Library,LyndaÂ’s Library,30.187181,-97.874637,5d6a734276989b000844288c,,,78739,Austin,TX,United States,"Austin, TX 78739",Library,Libraries,Library,4
Jollyville,Jollyville,Library,Llittle Free Library #12386,30.43782876,-97.6837106,543c2b95498e0d5e655d825d,,,,Jollyville,TX,United States,"Jollyville, TX",Library,Libraries,Library,33
Manchaca,,Library,Library,30.14480019,-97.79056549,4dde906445dd033c3931bad8,10701 S Interstate 35,,78747,Austin,TX,United States,10701 S Interstate 35,Library,Libraries,Library,22
Windsor Hills,,Library,Lbj Library And Museum,30.353322,-97.688208,5e1facdc9dfc6900071771b4,,,78753,Austin,TX,United States,"Austin, TX 78753",Library,Libraries,Library,18
Downtown,,Library,Austin Public Library - Cepeda Branch,30.259047,-97.708869,4b5b1c27f964a520d1e328e3,651 N Pleasant Valley Rd,,78702,Austin,TX,United States,651 N Pleasant Valley Rd,Library,Libraries,Library,14
Barton Hills,,Library,Westbank Library Parking Lot,30.27395876,-97.81177792,51e05789498e60b5b60c0e30,,,78746,Austin,TX,United States,"Austin, TX",Library,Libraries,Library,9
Round Rock,,Library,Round Rock Public Library,30.50936709,-97.6771204,4b4e35f5f964a5206de526e3,216 E Main St,S Sheppard St,78664,Round Rock,TX,United States,216 E Main St (S Sheppard St),Library,Libraries,Library,23
Allandale,,Library,"North Village Branch, Austin Public Library",30.36230894,-97.7307725,4b48b909f964a520245426e3,2505 Steck Ave,,78757,Austin,TX,United States,2505 Steck Ave,Library,Libraries,Library,11
14611 N Mopac Expy,,Library,Wells Branch Library,30.44576703,-97.67576168,4a412b94f964a520e0a41fe3,15001 Wells Port Dr,at Alpha Collier Dr,78728,Austin,TX,United States,15001 Wells Port Dr (at Alpha Collier Dr),Library,Libraries,Library,33
Cedar Park,,Library,Cedar Park Library,30.51889296,-97.82385545,4b462772f964a520571826e3,550 Discovery Blvd,,78613,Cedar Park,TX,United States,550 Discovery Blvd,Library,Libraries,Library,34
Leander,,Library,Leander Public Library,30.56016888,-97.86229783,4b9bb240f964a520171b36e3,1011 S Bagdad Rd,,78641,Leander,TX,United States,1011 S Bagdad Rd,Library,Libraries,Library,34
Allandale,,Library,Austin Public Library - Old Quarry Branch,30.35314321,-97.755459,4abbc911f964a520e88420e3,7051 Village Center Dr,,78731,Austin,TX,United States,7051 Village Center Dr,Library,Libraries,Library,11
East Riverside-Oltorf,,Library,"Ruiz Branch, Austin Public Library",30.23017808,-97.70679127,4b85b6f4f964a520b46e31e3,1600 Grove Blvd,,78741,Austin,TX,United States,1600 Grove Blvd,Library,Libraries,Library,14
Westgate,,Library,"Manchaca Road Branch, Austin Public Library",30.21643961,-97.79753598,4a7daef2f964a5202cef1fe3,5500 Manchaca Rd,,78745,Austin,TX,United States,5500 Manchaca Rd,Library,Libraries,Library,29
Oak Hill,,Library,"Hampton Branch at Oak Hill, Austin Public Library",30.21774886,-97.8546827,4aafc788f964a520af6420e3,5125 Convict Hill Rd,,78749,Austin,TX,United States,5125 Convict Hill Rd,Library,Libraries,Library,30
Bee Cave Road,,Library,Bee Cave Public Library,30.30863079,-97.93984824,51abb2b8498e55cfbc2b6487,4000 Galleria Pkwy,,78738,Bee Cave,TX,United States,4000 Galleria Pkwy,Library,Libraries,Library,2
Mueller,,Library,"Windsor Park Branch, Austin Public Library",30.3114635,-97.69034831,4a834091f964a52081fa1fe3,5833 Westminster Dr,,78723,Austin,TX,United States,5833 Westminster Dr,Library,Libraries,Library,35
Downtown,,Library,Ralph W. Yarborough Study,30.276106,-97.741731,50eaf576e4b098a1f88fdd9b,,,78701,Austin,TX,United States,"Austin, TX 78701",Library,Libraries,Library,0
Pflugerville,,Library,Libraries Of Love,30.427495,-97.61207,4e774de98998ed82a58b0e3b,,,,Pflugerville,TX,United States,"Pflugerville, TX",Library,Libraries,Library,5
Barton Hills,,Library,SSES Library,30.3293457,-97.81648254,4e83c764be7b87d6abc24096,6500 Saint Stephens Dr,,78746,Austin,TX,United States,6500 Saint Stephens Dr,Library,Libraries,Library,38
Oak Hill,,Library,McInnis Stardeck,30.1454796,-97.96584477,4cb5ee67b315a093f33b9876,,,78737,Austin,TX,United States,"Austin, TX 78737",Library,Libraries,Library,36
14611 N Mopac Expy,,Library,The Little Library on Fleischer,30.44412673,-97.67122933,5700e0a3498e013a48002511,,,78728,,Texas,United States,Texas,Library,Libraries,Library,33
Round Rock,,Library,Williamson Genealogical Society meeting,30.509791,-97.677176,5350724c498e2a58b5ea8f9c,,,,Round Rock,TX,United States,"Round Rock, TX",Library,Libraries,Library,23
Round Rock,,Library,Union Hill Library,30.553893,-97.659896,4ed6aebed3e37b38b797e34a,1511 Gulf Way,Sandy Brook,78665,Round Rock,TX,United States,1511 Gulf Way (Sandy Brook),Library,Libraries,Library,1
Downtown,,Library,Austin Public Library - Carver Branch,30.26956083,-97.72430886,4a77704ff964a5207ee41fe3,1161 Angelina St,Rosewood,78702,Austin,TX,United States,1161 Angelina St (Rosewood),Library,Libraries,Library,14
Mueller,,Library,"University Hills Branch, Austin Public Library",30.3089366,-97.66650893,4a8886bef964a520c40620e3,4721 Loyola Ln,,78723,Austin,TX,United States,4721 Loyola Ln,Library,Libraries,Library,31
Westgate,,Library,"Pleasant Hill Branch, Austin Public Library",30.19240493,-97.7769953,4ae31c61f964a520899021e3,211 E William Cannon Dr,,78745,Austin,TX,United States,211 E William Cannon Dr,Library,Libraries,Library,22
Barton Hills,,Library,Laura Bush Community Library,30.31523593,-97.87099221,4bd22239b221c9b61403d7d0,1309 Westbank Dr,Cuernavaca,78746,Austin,TX,United States,1309 Westbank Dr (Cuernavaca),Library,Libraries,Library,38
Downtown,,Library,"Howson Branch, Austin Public Library",30.29815471,-97.76785241,4bc39517461576b00ad97e32,2500 Exposition Blvd,,78703,Austin,TX,United States,2500 Exposition Blvd,Library,Libraries,Library,27
Pflugerville,,Library,Pflugerville Community Library,30.4425609,-97.62893846,4b258abff964a520867324e3,102 S 10th St,at FM 1825 / Pecan St W,78660,Pflugerville,TX,United States,102 S 10th St (at FM 1825 / Pecan St W),Library,Libraries,Library,5
W Howard Ln,,Library,"Milwood Branch, Austin Public Library",30.42218185,-97.71623713,4b9edc09f964a520c90637e3,12500 Amherst Dr,,78727,Austin,TX,United States,12500 Amherst Dr,Library,Libraries,Library,6
Barton Hills,,Library,"Twin Oaks Branch, Austin Public Library",30.24883158,-97.76221385,4c6fe63adf6b8cfa176ab64d,1800 S 5th St,,78704,Austin,TX,United States,1800 S 5th St,Library,Libraries,Library,17
11th / 12th /14th / 15th  Street,,Building,Texas Capitol Extension,30.27586402,-97.73990756,4ca74ec7a6e08cfad7118394,201 E 14th St,,78701,Austin,TX,United States,201 E 14th St,Capitol Building,Capitol Buildings,Capitol Building,0
Round Rock,Milwood,Health,KC Dental,30.44447451,-97.7439523,4c1f734b8b3aa59387749d5f,6301 W Parmer Ln #606,,78729,Austin,TX,United States,6301 W Parmer Ln #606,Dentist's Office,Dentist's Offices,Dentist's Office,26
Cedar Park,,Health,Williams Wellness Chiropractic & Acupuncture,30.490821,-97.829319,555fd7e0498e030b0a37ae67,1103 Cypress Creek Rd Ste 102,Nelson Ranch Rd,78613,Cedar Park,TX,United States,1103 Cypress Creek Rd Ste 102 (Nelson Ranch Rd),Chiropractor,Chiropractors,Chiropractors,3
Allandale,,Health,"Dr. Kemper, MD",30.338853,-97.75665,4b868d23f964a520258f31e3,5750 Balcones Dr,,78731,Austin,TX,United States,5750 Balcones Dr,Doctor's Office,Doctor's Offices,Doctor's Office,11
Easton Park,,Health,Integral Care,30.203909,-97.75614,58791bbd92789f7daf2a3a60,,,78744,Austin,TX,United States,"Austin, TX 78744",Medical Center,Medical Centers,Medical,39
Oak Hill,,Health,Circle C Animal Hospital,30.20383752,-97.87920533,4b717bc9f964a52005492de3,9600 Escarpment Blvd,Slaughter Lane,78749,Austin,TX,United States,9600 Escarpment Blvd (Slaughter Lane),Veterinarian,Veterinarians,Veterinarians,30
The University Of Texas,,Health,Dell Medical School Health Transformation Building,30.27775121,-97.73476561,59b1d0ee4f0e5866b625c709,1601 Trinity St,,78712,Austin,TX,United States,1601 Trinity St,Medical Center,Medical Centers,Medical,0
Cedar Park,,Health,Austin Diagnostic Clinic - Cedar Park,30.53226826,-97.81172943,5b7aeb77ad910e002bd7e4e6,1401 Medical Pkwy Ste 150 Bldg C,Building C Suite 150,78613,Cedar Park,TX,United States,1401 Medical Pkwy Ste 150 Bldg C (Building C Suite 150),Medical Center,Medical Centers,Medical,34
Barton Hills,,Health,TexStar Chiropractic Clinic,30.23941,-97.831795,51c84c51498e778c29528607,4601 Southwest Pkwy Ste 101,,78735,Austin,TX,United States,4601 Southwest Pkwy Ste 101,Chiropractor,Chiropractors,Chiropractors,29
The University Of Texas,,Health,UT Austin Health Center,30.277703,-97.735318,603e56fab1a5044e7bf973bb,1601 Trinity St,,78712,Austin,TX,United States,1601 Trinity St,Doctor's Office,Doctor's Offices,Doctor's Office,0
Round Rock,,Health,Park Valley Inn,30.51311728,-97.71872301,4b9e163ff964a520e0c936e3,17751 Park Valley Dr,Wyoming Springs,78681,Round Rock,TX,United States,17751 Park Valley Dr (Wyoming Springs),Medical Center,Medical Centers,Medical,23
Northwest Hills,,Health,"Dr. Bill Burkhardt, DDS",30.36765671,-97.75337219,4bbe1d931416a5934daaf33c,4005 Spicewood Springs Rd,,78759,Austin,TX,United States,4005 Spicewood Springs Rd,Dentist's Office,Dentist's Offices,Dentist's Office,11
2nd / 4th / 5th / 7th Street,,Health,Planned Parenthood of Greater Texas: Downtown Austin Clinic,30.262358,-97.72244,4c7bdfed88449eb09c97ab79,1823 E 7th St,,78702,Austin,TX,United States,1823 E 7th St,Medical Center,Medical Centers,Medical,14
Buda / Kyle,,Health,NEO Dentistry,29.999913,-97.860727,4f2d5dcae4b0ccb912bb5c4b,,,78640,Kyle,TX,United States,"Kyle, TX 78640",Dentist's Office,Dentist's Offices,Dentist's Office,10
Cedar Park,,Health,Banfield Pet Hospital,30.52791822,-97.81530261,4b522450f964a520126b27e3,1335 E Whitestone Blvd Bldg F,,78613,Cedar Park,TX,United States,1335 E Whitestone Blvd Bldg F,Veterinarian,Veterinarians,Veterinarians,34
Oak Hill,,Health,Austin Salt Cave,30.3341568,-97.9668318,58c0eb7d7b88a7133017b4e3,"2951 Ranch Rd 620 S, 102",,78738,Lakeway,TX,United States,"2951 Ranch Rd 620 S, 102",Medical Center,Medical Centers,Medical,2
Cedar Park,,Health,BackBone Wellness Center,30.52187862,-97.77489647,4ecd1d2ff9f4407d23a857f1,12101 W. Parmer Ln #200,Kenai and Parmer,78613,Cedar Park,TX,United States,12101 W. Parmer Ln #200 (Kenai and Parmer),Chiropractor,Chiropractors,Chiropractors,15
Round Rock,,Health,Austin Regional Clinic,30.48463799,-97.68948704,4a8ab12ef964a520380a20e3,940 Hesters Crossing Rd,La Frontera Blvd,78681,Round Rock,TX,United States,940 Hesters Crossing Rd (La Frontera Blvd),Doctor's Office,Doctor's Offices,Doctor's Office,13
901 W Braker Ln,,Health,Austin Area OB/GYN,30.4118941,-97.7057026,4b7072d1f964a5201a1b2de3,12200 Renfert Way Ste 100,,78758,Austin,TX,United States,12200 Renfert Way Ste 100,Doctor's Office,Doctor's Offices,Doctor's Office,6
901 W Braker Ln,,Health,St. David's Women's Center,30.4119382,-97.7050975,4aa92aedf964a520445220e3,12221 N Mo Pac Expy,,78758,Austin,TX,United States,12221 N Mo Pac Expy,Doctor's Office,Doctor's Offices,Doctor's Office,6
Cedar Park,,Health,Parmer Lane Pet Hospital,30.52014108,-97.77473956,4c63044286b6be9a73828d34,11951 West Parmer Lane,Brushy Creek,78613,Cedar Park,TX,United States,11951 West Parmer Lane (Brushy Creek),Veterinarian,Veterinarians,Veterinarians,15
Allandale,,Health,Performance Wellness,30.345879,-97.7521034,4ae9f26ef964a520e2b721e3,"6500 N Mopac Expy, Bldg 3, #3101",Hart Lane,78731,Austin,TX,United States,"6500 N Mopac Expy, Bldg 3, #3101 (Hart Lane)",Medical Center,Medical Centers,Medical,11
Bee Cave Road,,Health,St. David's Rehabilitation - The Hills of Westlake,30.2871493,-97.815886,4c7c1e32bd346dcbec3afdef,4613 Bee Caves Rd,,78746,West Lake Hills,TX,United States,4613 Bee Caves Rd,Medical Center,Medical Centers,Medical,38
Hancock,,Health,Red River Family Practice,30.28894772,-97.72587516,4bbfa3ff4cdfc9b6fc9e9121,900 E 30th St Ste 300,Red River,78705,Austin,TX,United States,900 E 30th St Ste 300 (Red River),Doctor's Office,Doctor's Offices,Doctor's Office,0
Allandale,,Health,Austin Regional Clinic,30.35144027,-97.75054976,4ad36f84f964a52066e420e3,6835 Austin Center Blvd,Far West Blvd and Austin Parkway,78731,Austin,TX,United States,6835 Austin Center Blvd (Far West Blvd and Austin Parkway),Doctor's Office,Doctor's Offices,Doctor's Office,11
University Oaks Blvd,,Health,Oakwood Womens Center,30.51222603,-97.71221273,4c3f4d62cc410f476cf7a761,511 Oakwood Blvd #301,,78681,Round Rock,TX,United States,511 Oakwood Blvd #301,Doctor's Office,Doctor's Offices,Doctor's Office,23
Barton Hills,,Health,Texas Orthopedics,30.24327771,-97.80014968,4d2dcdc188e23704e14b3dc7,3755 S Capital of Texas Hwy,,78704,Austin,TX,United States,3755 S Capital of Texas Hwy,Doctor's Office,Doctor's Offices,Doctor's Office,9
Allandale,,Health,Far West Medical Tower,30.35077819,-97.75061618,4ffb3808e4b037a865029f64,6811 Austin Parkway,,78731,Austin,TX,United States,6811 Austin Parkway,Medical Center,Medical Centers,Medical,11
901 W Braker Ln,,Health,ADC Family Practice,30.41295153,-97.70388329,4c7582ef66be6dcb59a2c00f,2312 Cedar Bend Dr.,,78758,Austin,TX,United States,2312 Cedar Bend Dr.,Doctor's Office,Doctor's Offices,Doctor's Office,6
Round Rock,,Health,Central Texas Veterinary Specialty Hospital,30.50901087,-97.68932458,4ca38e73d7c337047dfca162,301 Chisholm Trl,620,78681,Round Rock,TX,United States,301 Chisholm Trl (620),Veterinarian,Veterinarians,Veterinarians,23
6th Street,,Health,Inner Sun Chiropractic - Dr Ron Burnett,30.27305083,-97.75871284,4c0d8b14336220a17eedca77,1211 W 6th St #800,Walsh,78703,Austin,TX,United States,1211 W 6th St #800 (Walsh),Chiropractor,Chiropractors,Chiropractors,17
901 W Braker Ln,,Health,The Austin Diagnostic Clinic,30.4131815,-97.70389042,4b82916cf964a520b1d830e3,2400 Cedar Bend Dr,btw Cedar Bend & Park Bend,78758,Austin,TX,United States,2400 Cedar Bend Dr (btw Cedar Bend & Park Bend),Medical Center,Medical Centers,Medical,6
Cedar Park,,Health,Austin Regional Clinic: Cedar Park,30.52439189,-97.82131262,4be42695d4f7c9b6eab72320,801 E Whitestone Blvd Ste B,,78613,Cedar Park,TX,United States,801 E Whitestone Blvd Ste B,Medical Center,Medical Centers,Medical,34
Round Rock,Cat Hollow,Health,Treehouse Pediatrics,30.4950627,-97.7238061,4ba8c0f1f964a52051ec39e3,1001 Little Oak Way,,78681,Round Rock,TX,United States,1001 Little Oak Way,Doctor's Office,Doctor's Offices,Doctor's Office,23
University Oaks Blvd,,Health,Scott & White Specialty Clinic,30.55888362,-97.68096874,4c47598f96abd13a02727001,425 University Blvd,,78665,Round Rock,TX,United States,425 University Blvd,Doctor's Office,Doctor's Offices,Doctor's Office,1
Canyon Creek,,Health,Four Paws At Four Points,30.4264464,-97.8442797,4bd0b1b39854d13aa73ef84d,8610 N FM 620 Rd,,78726,Austin,TX,United States,8610 N FM 620 Rd,Veterinarian,Veterinarians,Veterinarians,20
Barton Hills,,Health,Baylor Scott & White Medical Center - Austin,30.23583623,-97.83449891,5e20e7a57a39cc00078ed80e,5245 West US Highway 290 Service Rd,,78735,Austin,TX,United States,5245 West US Highway 290 Service Rd,Hospital,Hospitals,Hospital,29
Lamar Boulevard,,Health,Austin Emergency Center - South Lamar,30.2354528,-97.7926806,52535bd8498e1d9eaf030ece,4015 S Lamar Blvd,,78704,Austin,TX,United States,4015 S Lamar Blvd,Emergency Room,Emergency Rooms,Emergency Room,9
Louis Henna Blvd,,Health,St. DavidÂ’s Surgical Hospital,30.476959,-97.690609,57c8d3becd107656b3b7a1fc,1201 W Louis Henna Blvd,,78681,Austin,TX,United States,1201 W Louis Henna Blvd,Hospital,Hospitals,Hospital,13
Buda / Kyle,,Health,Baylor Scott & White Medical Center - Buda,30.07665816,-97.82007541,5d48af148e0eb700099daeaa,5330 Overpass Rd,,78610,Buda,TX,United States,5330 Overpass Rd,Hospital,Hospitals,Hospital,37
Hancock,,Health,Central Texas Rehabilitation Hospital,30.312317,-97.734706,4f9577a37beb021fd53f061c,700 W 45th St,,78751,Austin,TX,United States,700 W 45th St,Hospital,Hospitals,Hospital,35
Oak Hill,,Health,Ascension Seton Southwest,30.22664603,-97.8920747,5580fb9f498e6205a102a0c1,7900 Farm to Market Rd 1826,Suite 101,78737,Austin,TX,United States,7900 Farm to Market Rd 1826 (Suite 101),Hospital,Hospitals,Hospital,30
Round Rock,,Health,St. David's Round Rock Medical Center,30.5110202,-97.7135369,5812a2e838fa8c73be2281e9,2400 Round Rock Ave,,78681,Round Rock,TX,United States,2400 Round Rock Ave,Hospital,Hospitals,Hospital,23
Pflugerville,,Health,Central Texas Animal Hospital,30.4450353,-97.6295019,4ce6e26c595cb1f75501bf14,1200 W. Pecan St.,,78660,Pflugerville,TX,United States,1200 W. Pecan St.,Veterinarian,Veterinarians,Veterinarians,5
Round Rock,,Health,Scott & White - Urology,30.56272,-97.684425,6026e29ed02cc33b76d579e6,,,78665,Round Rock,TX,United States,"Round Rock, TX 78665",Hospital,Hospitals,Hospital,1
The University Of Texas,,Health,Ascension Seton Infusion Center,30.2772353,-97.7350502,5fcab6f02673313b209ec9c1,1601 Trinity St,#804,78712,Austin,TX,United States,1601 Trinity St (#804),Hospital,Hospitals,Hospital,0
Round Rock,,Health,Cornerstone Hospital of Round Rock,30.56682035,-97.65772769,536d3a0a498e22fdba71f66b,4681 College Park,University,78665,Round Rock,TX,United States,4681 College Park (University),Hospital,Hospitals,Hospital,1
901 W Braker Ln,,Health,Gracy Woods II,30.4015548,-97.69969305,4f80e010e4b0d9965a3e7075,,,78758,Austin,TX,United States,"Austin, TX 78758",Hospital,Hospitals,Hospital,6
Buda / Kyle,,Health,Texas Orthopedics,30.02756119,-97.87859344,5a55f64abe70786ab467706c,"4215 Benner Rd, Ste. 300",,78640,Kyle,TX,United States,"4215 Benner Rd, Ste. 300",Hospital,Hospitals,Hospital,10
Cedar Park,,Health,CareNow Urgent Care - Cedar Park,30.5338933,-97.8178574,598120410d8a0f1bf87977fc,5001 183A Toll Rd Ste R100,,78613,Cedar Park,TX,United States,5001 183A Toll Rd Ste R100,Urgent Care Center,Urgent Care Centers,Urgent Care Center,34
Westgate,,Health,Surgicare Of South Austin,30.223899,-97.774233,4e4bf1cab0fbbc2182b2c37e,4307 James Casey St,,78745,Austin,TX,United States,4307 James Casey St,Hospital,Hospitals,Hospital,39
Manchaca,,Health,Concentra Urgent Care,30.15685355,-97.78944059,4e42ee2e483b13c708dc4af6,10001 S Interstate 35 Ste 300,,78747,Austin,TX,United States,10001 S Interstate 35 Ste 300,Medical Center,Medical Centers,Medical,22
Windsor Hills,,Health,CareNow Urgent Care - Tech Ridge,30.40449122,-97.6740214,5909cc3a0457b7077165af93,12415 N Interstate 35,,78753,Austin,TX,United States,12415 N Interstate 35,Urgent Care Center,Urgent Care Centers,Urgent Care Center,33
Westgate,,Health,Texas Children's Urgent Care Westgate,30.23030652,-97.7994408,5aa1be889e0d54211cc42ac2,4477 S Lamar Blvd Ste 400,,78745,Austin,TX,United States,4477 S Lamar Blvd Ste 400,Hospital,Hospitals,Hospital,29
Louis Henna Blvd,,Health,Concentra Urgent Care,30.47902707,-97.6712878,4c10e2fb753a9c74b073a420,"117-B Louis Henna Blvd., Ste. 200",IH35 North,78664,Round Rock,TX,United States,"117-B Louis Henna Blvd., Ste. 200 (IH35 North)",Medical Center,Medical Centers,Medical,13
Barton Hills,,Health,CareNow Urgent Care - Southwest Austin,30.2324068,-97.8249079,58804812e612f2215820e17a,5033 US-290,,78746,Austin,TX,United States,5033 US-290,Urgent Care Center,Urgent Care Centers,Urgent Care Center,29
Bee Cave Road,,Health,Austin Plastic Surgery Institute,30.2879522,-97.8159262,4f85edd2e4b0657ba81b35d8,4701 Bee Cave Rd #202,,78746,West Lake Hills,TX,United States,4701 Bee Cave Rd #202,Doctor's Office,Doctor's Offices,Doctor's Office,38
Bee Cave Road,,Health,Arise Austin Medical Center,30.27079458,-97.79604492,4b702b5bf964a520dc092de3,3003 Bee Caves Rd,at Beecave Woods Dr,78746,Austin,TX,United States,3003 Bee Caves Rd (at Beecave Woods Dr),Hospital,Hospitals,Hospital,9
University Oaks Blvd,,Health,Baylor Scott & White Medical Center - Round Rock,30.56344,-97.68454,4ecf9dbe7ee5be844a31fbb4,300 University Boulevard,,78665,Round Rock,TX,United States,300 University Boulevard,Hospital,Hospitals,Hospital,1
Mueller,,Health,Dell Children's Medical Center of Central Texas,30.30344,-97.70653,4afccfc9f964a520072622e3,4900 Mueller Blvd,,78723,Austin,TX,United States,4900 Mueller Blvd,Medical Center,Medical Centers,Medical,35
Allandale,,Health,Heart Hospital of Austin,30.30593438,-97.74120614,4b664b23f964a520aa1c2be3,3801 N Lamar Blvd,at W 38th St,78756,Austin,TX,United States,3801 N Lamar Blvd (at W 38th St),Hospital,Hospitals,Hospital,0
Brushy Creek,,Health,St Davids Hospital Round Rock,30.51070335,-97.71334904,526036c411d22a80c69c1d5a,,,,Brushy Creek,TX,United States,"Brushy Creek, TX",Hospital,Hospitals,Hospital,23
Hancock,,Health,Park St. David's,30.28794525,-97.72660094,4b7c605ff964a520af8f2fe3,900 E 30th St,Red River,78705,Austin,TX,United States,900 E 30th St (Red River),Hospital,Hospitals,Hospital,0
Oak Hill,,Health,Lakeway Regional Medical Center,30.33291728,-97.97158198,512b6c79e4b034d2bf81e144,100 Medical Pkwy,620,78738,Lakeway,TX,United States,100 Medical Pkwy (620),Hospital,Hospitals,Hospital,2
Bee Cave Road,,Health,The Hospital At Westlake Medical Center,30.29575589,-97.82573085,4be30deab02ec9b609714ec0,5656 Beecaves Road,,,West Lake Hills,TX,United States,5656 Beecaves Road,Hospital,Hospitals,Hospital,38
901 W Braker Ln,,Health,Sunbury Vet Clinic,30.41738232,-97.7037345,4a8ec1b1f964a520931220e3,12407 N MO Pac Expy Ste 400,,78758,Austin,TX,United States,12407 N MO Pac Expy Ste 400,Hospital,Hospitals,Hospital,6
Round Rock,,Health,Scott & White Hospital,30.56319633,-97.68491406,5033ac21e4b0ca061ef9c8ea,,,78664,Round Rock,TX,United States,"Round Rock, TX 78664",Hospital,Hospitals,Hospital,1
Hancock,,Health,Austin State Hospital (ASH),30.30857065,-97.73553371,4bbc93a2ed7776b0e0c63f51,4110 Guadalupe St,Lamar,78751,Austin,TX,United States,4110 Guadalupe St (Lamar),Hospital,Hospitals,Hospital,0
Mueller,,Health,Strictly Pediatrics Subspecialty Center,30.30558985,-97.70697696,4bc328bb461576b005367e32,"1301 Barbara Jordan Blvd, #200",,78723,Austin,TX,United States,"1301 Barbara Jordan Blvd, #200",Hospital,Hospitals,Hospital,35
Cedar Park,,Health,Texas Orthopedics,30.53170989,-97.81102598,4ba90caff964a520db063ae3,1401 Medical Pkwy,,78613,Cedar Park,TX,United States,1401 Medical Pkwy,Hospital,Hospitals,Hospital,34
Allandale,,Health,Northwest Hills Surgical Hospital,30.35045564,-97.75167662,4b7d5278f964a52034b82fe3,6818 Austin Center Blvd,Far West,78731,Austin,TX,United States,6818 Austin Center Blvd (Far West),Hospital,Hospitals,Hospital,11
Oak Hill,,Health,Texas MedClinic,30.15440663,-97.79200885,4b79ab50f964a520d7092fe3,"9900 S I-35, Building S",Slaughter,78748,Austin,TX,United States,"9900 S I-35, Building S (Slaughter)",Doctor's Office,Doctor's Offices,Doctor's Office,22
Downtown,,Hotel,The Driskill,30.26784074,-97.74171499,40b13b00f964a5209bf31ee3,604 Brazos Street,,78701,Austin,TX,United States,604 Brazos Street,Hotel,Hotels,Hotel,17
2nd / 4th / 5th / 7th Street,,Hotel,Aloft Austin Downtown,30.2686741,-97.7420498,59783b6ff8cbd4027d863cbe,109 E 7th St,,78701,Austin,TX,United States,109 E 7th St,Hotel,Hotels,Hotel,17
2nd / 4th / 5th / 7th Street,,Hotel,The Westin Austin Downtown,30.26660569,-97.74036169,55aec831498e722bf260bc5c,310 E 5th St,San Jacinto,78701,Austin,TX,United States,310 E 5th St (San Jacinto),Hotel,Hotels,Hotel,17
2nd / 4th / 5th / 7th Street,,Hotel,JW Marriott Austin,30.2644967,-97.74312433,53245e9b498e51a15c18e427,110 E 2nd St,,78701,Austin,TX,United States,110 E 2nd St,Hotel,Hotels,Hotel,17
Downtown,,Hotel,Hyatt Place Austin Downtown,30.2644327,-97.74196029,4f0db067e5e84ab31ac00167,211 E 3rd St,,78701,Austin,TX,United States,211 E 3rd St,Hotel,Hotels,Hotel,17
East Riverside-Oltorf,,Hotel,Aloft Austin Airport,30.2210707,-97.687239,5df7eb057758ba0008d28b27,8000 East Ben White Boulevard,,78741,Austin,TX,United States,8000 East Ben White Boulevard,Hotel,Hotels,Hotel,8
Hancock,,Hotel,"The Otis Hotel, Autograph Collection",30.2822284,-97.7431449,5e383e22e2c9180008c78ef0,1901 San Antonio St,,78705,Austin,TX,United States,1901 San Antonio St,Hotel,Hotels,Hotel,0
Windsor Hills,,Hotel,Staybridge Suites Austin North - Parmer Lane,30.410451,-97.67714202,56614c2d498e1563b34fb554,13000 N Interstate 35 Bldg 9,,78753,Austin,TX,United States,13000 N Interstate 35 Bldg 9,Hotel,Hotels,Hotel,33
Round Rock,,Hotel,Best Western Executive Inn,30.52639561,-97.68905771,4b9c398df964a520aa5636e3,1851 N IH-35,,78664,Round Rock,TX,United States,1851 N IH-35,Hotel,Hotels,Hotel,23
2nd / 4th / 5th / 7th Street,,Nightlife,Austin Proper Hotel,30.266141,-97.750097,5c8c0c2f178a2a002cd0e092,600 W 2nd St,Nueces St,78701,Austin,TX,United States,600 W 2nd St (Nueces St),Resort,Resorts,Resort,17
Lavaca Street,,Hotel,W Austin,30.26546361,-97.74672523,4bb52afeef159c74446274f7,200 Lavaca St,at W 2nd St,78701,Austin,TX,United States,200 Lavaca St (at W 2nd St),Hotel,Hotels,Hotel,17
2nd / 4th / 5th / 7th Street,,Hotel,Courtyard by Marriott Austin Downtown/Convention Center,30.2656742,-97.7404885,47d14b4cf964a520134e1fe3,300 E 4th St,at Trinity St,78701,Austin,TX,United States,300 E 4th St (at Trinity St),Hotel,Hotels,Hotel,17
Cedar Park,,Hotel,SpringHill Suites by Marriott Austin Cedar Park,30.525732,-97.820304,58b145795d6ec6066268fcbe,1110 Discovery Blvd,,78613,Cedar Park,TX,United States,1110 Discovery Blvd,Hotel,Hotels,Hotel,34
Barton Hills,,Hotel,Carpenter Hotel,30.26220883,-97.75877952,5ba3c449898bdc002c9bd037,400 Josephine St,,78704,Austin,TX,United States,400 Josephine St,Hotel,Hotels,Hotel,17
6th Street,,Hotel,Inn Cahoots,30.263945,-97.729724,5c5cb8e906fb60002c06f9f7,1221 E 6th St,,78702,Austin,TX,United States,1221 E 6th St,Hotel,Hotels,Hotel,14
Oak Hill,,Entertainment,Stepping Rock,30.21942,-97.947974,59b4aeae0e5da84fe5e1d49b,10500 Spring Valley Rd,,78737,Austin,TX,United States,10500 Spring Valley Rd,Vacation Rental,Vacation Rentals,Vacation Rental,19
14611 N Mopac Expy,,Hotel,TownePlace Suites by Marriott Austin Round Rock,30.47762616,-97.68047065,59b9f4e5d8096e36d58abdca,541 Parker Dr,,78728,Austin,TX,United States,541 Parker Dr,Hotel,Hotels,Hotel,13
Ranch Rd 620 N,,Hotel,Residence Inn Austin Lake Austin/River Place,30.39316777,-97.84819638,580aa1ce38fab626fcb0aadc,6608 River Place Blvd,,78730,Austin,TX,United States,6608 River Place Blvd,Hotel,Hotels,Hotel,20
Downtown,,Hotel,Omni Austin Hotel Downtown,30.26899639,-97.74031878,45f69efcf964a5202a441fe3,700 San Jacinto at 8th Street,,78701,Austin,TX,United States,700 San Jacinto at 8th Street,Hotel,Hotels,Hotel,17
Barton Hills,,Building,Skyline at Barton Creek,30.2609726,-97.7870422,5e3c9f42fdae920008892836,1300 Spyglass Dr,,78746,Austin,TX,United States,1300 Spyglass Dr,Residential Building (Apartment / Condo),Residential Buildings (Apartments / Condos),Residential,9
Downtown,,Hotel,Hotel Zaza,30.266652,-97.745825,5ce07b15e57ca6002cf2b420,,,78701,Austin,TX,United States,"Austin, TX 78701",Hotel,Hotels,Hotel,17
Round Rock,,Hotel,Microtel Inn & Suites,30.48433558,-97.64773513,50a5c90fe4b06baebdc928a3,,,78664,Round Rock,TX,United States,"Round Rock, TX 78664",Hotel,Hotels,Hotel,13
6th Street,,Hotel,ARRIVE East Austin,30.261621,-97.722935,5d18c47aca49b3002fbe86cc,1813 E 6th St,Chicon,78702,Austin,TX,United States,1813 E 6th St (Chicon),Hotel,Hotels,Hotel,14
Manor,,Park,Oak Forest RV Park,30.28323185,-97.6356781,4c485cc11ddec9282a42a032,8207 Canoga Ave,Decker lane,78724,Austin,TX,United States,8207 Canoga Ave (Decker lane),RV Park,RV Parks,RV Park,31
Easton Park,,Hotel,WoodSpring Suites Austin South Central I-35,30.20686338,-97.75617868,5a9fbc3a610f04520f5d77bc,4911 S Interstate 35,,78744,Austin,TX,United States,4911 S Interstate 35,Hotel,Hotels,Hotel,39
2nd / 4th / 5th / 7th Street,,Hotel,JW Marriott Executive Lounge,30.2643937,-97.7433743,54e7f13d498e6f9c46b3ea8c,110 E 2nd St,Brazos,78701,Austin,TX,United States,110 E 2nd St (Brazos),Hotel,Hotels,Hotel,17
11th / 12th /14th / 15th  Street,,Hotel,Sheraton Austin Hotel at the Capitol,30.2703277,-97.7341883,45f1b019f964a520d3431fe3,701 E 11th St,I-35 Frontage Rd.,78701,Austin,TX,United States,701 E 11th St (I-35 Frontage Rd.),Hotel,Hotels,Hotel,17
Easton Park,,Hotel,Austin Marriott South,30.210605,-97.7534993,49de39e6f964a52038601fe3,4415 S Interstate 35,,78744,Austin,TX,United States,4415 S Interstate 35,Hotel,Hotels,Hotel,39
Bee Cave Road,,Hotel,Sonesta Bee Cave Austin,30.3094874,-97.9354131,556d3783498e348961e03f83,12525 Bee Cave Pkwy,,78738,Bee Cave,TX,United States,12525 Bee Cave Pkwy,Hotel,Hotels,Hotel,2
Congress Avenue,,Hotel,The LINE Austin,30.262753,-97.743897,5b083b1d464d65003920b158,111 East Cesar Chavez,Congress,78701,Austin,TX,United States,111 East Cesar Chavez (Congress),Hotel,Hotels,Hotel,17
Red River St,,Hotel,Kimpton Hotel Van Zandt,30.26007799,-97.73914743,54edb367498ec9c89e70214c,605 Davis Street,Red River,78701,Austin,TX,United States,605 Davis Street (Red River),Hotel,Hotels,Hotel,17
Barton Springs,,Hotel,Hyatt Regency Austin,30.26083647,-97.74677993,49b73729f964a52023531fe3,208 Barton Springs,,78704,Austin,TX,United States,208 Barton Springs,Hotel,Hotels,Hotel,17
2nd / 4th / 5th / 7th Street,,Hotel,Hilton,30.2654213,-97.7386541,42323100f964a5200b201fe3,500 E 4th St,at Neches St,78701,Austin,TX,United States,500 E 4th St (at Neches St),Hotel,Hotels,Hotel,17
East Riverside-Oltorf,,Hotel,Hilton Garden Inn,30.2220153,-97.6883687,59b8c16bf8cbd476485b04c6,7610 John Glenn Way,,78741,Austin,TX,United States,7610 John Glenn Way,Hotel,Hotels,Hotel,8
East Riverside-Oltorf,,Hotel,Holiday Inn Austin-Town Lake,30.253817,-97.7371803,4b993c4cf964a520456c35e3,20 N Interstate 35,btwn Holly St & Lady Bird Lake,78701,Austin,TX,United States,20 N Interstate 35 (btwn Holly St & Lady Bird Lake),Hotel,Hotels,Hotel,17
Northwest Hills,,Hotel,Residence Inn Austin Northwest/Arboretum,30.38483442,-97.74007322,4b7b76dff964a52092642fe3,3713 Tudor Blvd,,78759,Austin,TX,United States,3713 Tudor Blvd,Hotel,Hotels,Hotel,25
East Riverside-Oltorf,,Hotel,Best Western Plus Austin Airport Inn & Suites,30.2205581,-97.6911448,4d4b9e1e1b6ea09349eaa6d9,1805 Airport Commerce Dr,,78741,Austin,TX,United States,1805 Airport Commerce Dr,Hotel,Hotels,Hotel,8
901 W Braker Ln,North Burnet,Hotel,Home2 Suites by Hilton,30.39922046,-97.71851804,555a0f93498e9be2a0588740,2800 Esperanza Xing,,78758,Austin,TX,United States,2800 Esperanza Xing,Hotel,Hotels,Hotel,25
Congress Avenue,,Hotel,Embassy Suites by Hilton,30.2587299,-97.7466501,49b736bff964a52022531fe3,300 S Congress Ave,at Barton Springs Rd.,78704,Austin,TX,United States,300 S Congress Ave (at Barton Springs Rd.),Hotel,Hotels,Hotel,17
Lavaca Street,,Hotel,Hampton Inn & Suites,30.27958009,-97.74090886,4fd0b3f5e4b03518eaee3bf3,1701 Lavaca St,,78701,Austin,TX,United States,1701 Lavaca St,Hotel,Hotels,Hotel,0
11th / 12th /14th / 15th  Street,,Hotel,DoubleTree by Hilton,30.27738359,-97.7425846,49b73849f964a52026531fe3,303 W 15th St,,78701,Austin,TX,United States,303 W 15th St,Hotel,Hotels,Hotel,0
11th / 12th /14th / 15th  Street,,Hotel,DoubleTree by Hilton,30.27723366,-97.72911251,4b834ee1f964a520b30131e3,1617 N Interstate 35,btwn 16th St & Martin Luther King Jr Blvd,78702,Austin,TX,United States,1617 N Interstate 35 (btwn 16th St & Martin Luther King Jr Blvd),Hotel,Hotels,Hotel,0
Congress Avenue,,Hotel,South Congress Hotel,30.24736463,-97.75030422,55f0f12d498e62eb27063c9e,1603 South Congress Ave,,78704,Austin,TX,United States,1603 South Congress Ave,Hotel,Hotels,Hotel,17
Northwest Hills,,Hotel,Staybridge Suites Austin Arboretum,30.39327171,-97.73910373,4b9b249df964a520d2f535e3,10201 Stonelake Blvd,,78759,Austin,TX,United States,10201 Stonelake Blvd,Hotel,Hotels,Hotel,25
Congress Avenue,,Hotel,Austin Motel,30.25174538,-97.7490714,4b3a9b1ef964a520f36a25e3,1220 S Congress Ave,,78704,Austin,TX,United States,1220 S Congress Ave,Motel,Motels,Motel,17
Barton Hills,,Hotel,Extended Stay America,30.25708536,-97.74975359,50e76653e4b0d9a26a9426ca,507 S 1st St,,78704,Austin,TX,United States,507 S 1st St,Hotel,Hotels,Hotel,17
Downtown,,Hotel,Four Seasons Hotel Austin,30.26191656,-97.74242088,45f02c8af964a520b9431fe3,98 San Jacinto Blvd,at E Cesar Chavez St,78701,Austin,TX,United States,98 San Jacinto Blvd (at E Cesar Chavez St),Hotel,Hotels,Hotel,17
Congress Avenue,,Hotel,Embassy Suites Downtown - Spa & Pool,30.25860843,-97.74684644,4b9b22dcf964a52061f535e3,300 S Congress Ave,,78704,Austin,TX,United States,300 S Congress Ave,Hotel Pool,Hotel Pools,Pool,17
2nd / 4th / 5th / 7th Street,,Grocery,Whole Foods Market,30.264449,-97.734165,5f417e8a459e75490f2b47d1,901 E 5th St Ste 100,,78702,Austin,TX,United States,901 E 5th St Ste 100,Grocery Store,Grocery Stores,Grocery Store,17
Lamar Boulevard,,Grocery,Wheatsville Co-op,30.23572024,-97.79121075,4fcbdd1de4b0ee2f3b0867b5,4001 S Lamar Blvd,at Ben White Blvd,78704,Austin,TX,United States,4001 S Lamar Blvd (at Ben White Blvd),Grocery Store,Grocery Stores,Grocery Store,9
Downtown,,Grocery,Whole Foods Roof Patio,30.27090299,-97.75362062,4c5317bdf5f3d13a950aedf7,,,78701,Austin,TX,United States,"Austin, TX 78701",Grocery Store,Grocery Stores,Grocery Store,17
Westgate,,Liquer,Total Wine & More,30.2252341,-97.8208706,555e33e5498e23396b1c37fc,"5601 Brodie Ln, Ste 800",,78745,Sunset Valley,TX,United States,"5601 Brodie Ln, Ste 800",Wine Shop,Wine Shops,Wine Shop,29
Barton Hills,,Liquer,"Spec's Wine, Spirits and Finer Foods",30.23411559,-97.81858677,4a9718fbf964a5206a2820e3,4970 Highway 290 West,,78735,Austin,TX,United States,4970 Highway 290 West,Liquor Store,Liquor Stores,Liquor Store,29
Pflugerville,,Market,Picadilly Market,30.465944,-97.6453,5d91f6398d575500086b0f83,,,78660,Pflugerville,TX,United States,"Pflugerville, TX 78660",Gas Station,Gas Stations,Gas Station,13
Northwest Hills,,Market,The Home Depot,30.3938457,-97.7313531,4b83227bf964a520b3f930e3,10515 N Mopac Expy,,78759,Austin,TX,United States,10515 N Mopac Expy,Hardware Store,Hardware Stores,Hardware,25
Mueller,,Market,The Home Depot,30.3078059,-97.7098239,4b391adff964a5204b5625e3,"1200 Barbara Jordan Blvd, Suite 100",,78723,Austin,TX,United States,"1200 Barbara Jordan Blvd, Suite 100",Hardware Store,Hardware Stores,Hardware,35
901 W Braker Ln,,Market,Domain Northside,30.402709,-97.722089,583229a98d8e99259a316193,Domain Dr,,78758,Austin,TX,United States,Domain Dr,Shopping Mall,Shopping Malls,Mall,25
Mueller,,Market,Mueller Shopping Center,30.30584048,-97.71090679,4e7bb74dd22dc5294f837c30,1201 Barbara Jordan Blvd,,78723,Austin,TX,United States,1201 Barbara Jordan Blvd,Shop & Service,Shops & Services,Shops,35
Northwest Hills,,Market,Costco,30.39657516,-97.74384959,49f759daf964a5208d6c1fe3,10401 Research Blvd,at Braker Ln,78759,Austin,TX,United States,10401 Research Blvd (at Braker Ln),Warehouse Store,Warehouse Stores,Warehouse Store,25
Oak Hill,,Market,Costco,30.21895381,-97.84279326,4a5908a4f964a5207cb81fe3,4301 W William Cannon Dr Bldg A Ste 100,at Mopac,78749,Austin,TX,United States,4301 W William Cannon Dr Bldg A Ste 100 (at Mopac),Warehouse Store,Warehouse Stores,Warehouse Store,29
Lamar Boulevard,,Market,Target,30.23318166,-97.79192978,49fb9ee0f964a520656e1fe3,2300 W Ben White Blvd,at S Lamar Blvd,78704,Austin,TX,United States,2300 W Ben White Blvd (at S Lamar Blvd),Big Box Store,Big Box Stores,Big Box Store,9
Barton Hills,,Market,Barton Creek Square,30.2576527,-97.8072545,43ed0a2ff964a5204b2f1fe3,2901 S Capital of Texas Hwy,Walsh Tarlton Ln,78746,Austin,TX,United States,2901 S Capital of Texas Hwy (Walsh Tarlton Ln),Shopping Mall,Shopping Malls,Mall,9
Cedar Park,Cedar Park Town Center,Market,Costco,30.52741661,-97.81944543,527a955811d22f0620d79d5c,4601 183a Toll Rd,,78613,Cedar Park,TX,United States,4601 183a Toll Rd,Warehouse Store,Warehouse Stores,Warehouse Store,34
Pflugerville,,Market,Costco,30.46923967,-97.59129573,5b313b0b60255e002cdb2171,1901 Kelly Ln,,78660,Pflugerville,TX,United States,1901 Kelly Ln,Warehouse Store,Warehouse Stores,Warehouse Store,5
Cedar Park,,Market,Lakeline Mall,30.470627,-97.8075594,4a403aa1f964a5206ba41fe3,11200 Lakeline Mall Dr,Pecan Park Blvd,78613,Cedar Park,TX,United States,11200 Lakeline Mall Dr (Pecan Park Blvd),Shopping Mall,Shopping Malls,Mall,3
Brushy Creek,,Market,Target,30.47580659,-97.79698211,4a52e704f964a52012b21fe3,10900 Lakeline Mall Dr,at N Lake Creek Pkwy,78717,Austin,TX,United States,10900 Lakeline Mall Dr (at N Lake Creek Pkwy),Big Box Store,Big Box Stores,Big Box Store,3
Oak Hill,,Market,Target,30.23415575,-97.82828356,4a3d55a9f964a5201da21fe3,5300 S Mo Pac Expy,,78749,Austin,TX,United States,5300 S Mo Pac Expy,Big Box Store,Big Box Stores,Big Box Store,29
Northwest Hills,,Market,Target,30.39259133,-97.74453598,4a52e426f964a5200eb21fe3,10107 Research Blvd,at Great Hills Trail,78759,Austin,TX,United States,10107 Research Blvd (at Great Hills Trail),Big Box Store,Big Box Stores,Big Box Store,25
Palm Valley,,Market,The Domain,30.4006016,-97.7251211,45f2c1f7f964a520e4431fe3,11410 Century Oaks Terrace,Palm Way,78758,Austin,TX,United States,11410 Century Oaks Terrace (Palm Way),Shopping Plaza,Shopping Plazas,Shopping Plaza,25
Cedar Park,,Market,Target,30.52848769,-97.81292336,4ada2ccaf964a5208e1f21e3,1101 C-Bar Ranch Trl Lot 2,,78613,Cedar Park,TX,United States,1101 C-Bar Ranch Trl Lot 2,Big Box Store,Big Box Stores,Big Box Store,34
Pflugerville,,Market,Target,30.4672834,-97.59818547,4b15aa9cf964a5201ab223e3,18700 Limestone Commercial Dr,Kelly Lane and 685,78660,Pflugerville,TX,United States,18700 Limestone Commercial Dr (Kelly Lane and 685),Big Box Store,Big Box Stores,Big Box Store,5
Round Rock,,Child Care,Primrose School of Round Rock North,30.560341,-97.678924,5410c8d4498ee411d7485ece,4271 Sunrise Road,,78665,Round Rock,TX,United States,4271 Sunrise Road,Daycare,Daycares,Daycare,1
Westgate,,Education,International Immersion Center Preschool (INIC),30.20369354,-97.80816905,59a9a64f86bc494d399483c9,2100 West William Cannon Drive,Manchaca,78745,Austin,TX,United States,2100 West William Cannon Drive (Manchaca),School,Schools,School,29
Cedar Park,,Child Care,Primrose School of Cedar Park West,30.47898306,-97.83018351,4c059383517d0f479cc1f415,2021 Little Elm Trail,,78613,Cedar Park,TX,United States,2021 Little Elm Trail,Daycare,Daycares,Daycare,3
Brushy Creek,,Education,Holy Family Catholic School,30.48858878,-97.76083627,4e8e44154901aab81aeecef3,9400 Neenah Ave,,78717,Austin,TX,United States,9400 Neenah Ave,School,Schools,School,15
Oak Hill,,Child Care,Bright Horizons Family Center at Oak Hill,30.210979,-97.875772,4fbe34cee4b0b96fcdc8c143,6111 Davis Ln,Escarpment,78749,Austin,TX,United States,6111 Davis Ln (Escarpment),Daycare,Daycares,Daycare,30
Oak Hill,,Child Care,The Children's Courtyard,30.22896471,-97.86181417,545d2ede498e3ab756beeb97,5914 West William Cannon Drive,,78749,Austin,TX,United States,5914 West William Cannon Drive,Daycare,Daycares,Daycare,30
Brushy Creek,,Child Care,The Goddard School,30.5005118,-97.7503472,5a6197645d891b6abeed6fad,9313 Pearson Ranch Road,,78717,Austin,TX,United States,9313 Pearson Ranch Road,Daycare,Daycares,Daycare,15
Round Rock,,Education,Learning House Preschool,30.498564,-97.675568,5f989d2e1f67181f27486585,1101 S Mays St,,78664,Round Rock,TX,United States,1101 S Mays St,Preschool,Preschools,Preschool,13
Oak Hill,,Education,Serene Hills Elementary School,30.34805117,-97.99628198,4f3d1493e4b0fc2b1f7b563c,3301 Serene Hills Ct,,78738,Austin,TX,United States,3301 Serene Hills Ct,Elementary School,Elementary Schools,Elementary School,21
Windsor Hills,,Education,Guerrero-Thompson Elementary,30.3638432,-97.6921175,52050f80498e19603c4dae90,102 E Rundberg Ln,,78753,Austin,TX,United States,102 E Rundberg Ln,Elementary School,Elementary Schools,Elementary School,18
Anderson Mill,,Education,Cedar Creek Middle School,30.09463015,-97.48004731,4ede4d97775bcc53ff1af80a,"121 Voss Pkwy, Cedar Creek, TX 78612",,78612,Cedar Creek,TX,United States,"121 Voss Pkwy, Cedar Creek, TX 78612",Middle School,Middle Schools,Middle School,28
W Howard Ln,,Child Care,Parmer Children's Montessori,30.41546247,-97.68891254,4cecb3a728abb60cff06b409,,,78727,Austin,TX,United States,"Austin, TX",Daycare,Daycares,Daycare,6
Bakers Lane,,Education,Primrose School,30.39153807,-97.84292974,4df92d21fa7667368a6afe14,6606 Stilio Del Rio,,,Austin,TX,United States,6606 Stilio Del Rio,School,Schools,School,20
Windsor Hills,Copperfield,Education,Copperfield Elementary,30.38830071,-97.65974569,4be9ec7062c0c9289848e0d4,,,78753,Austin,TX,United States,"Austin, TX 78753",Elementary School,Elementary Schools,Elementary School,33
Westgate,,Education,Valor Public school,30.17917252,-97.77983093,579606ad498ea410c2b93342,220 Foremost Dr,,78745,Austin,TX,United States,220 Foremost Dr,Private School,Private Schools,Private School,22
Mueller,,Education,Ortega Elementary School,30.26984305,-97.68409753,4bb4c811a7059521a9aa1bce,1135 Garland Ave,,78721,Austin,TX,United States,1135 Garland Ave,Elementary School,Elementary Schools,Elementary School,14
2nd / 4th / 5th / 7th Street,,Education,Brooke Elementary,30.254813,-97.708044,4bcdbc47511f9521270cb5c7,3100 E 4th St,,78702,Austin,TX,United States,3100 E 4th St,Elementary School,Elementary Schools,Elementary School,14
East Riverside-Oltorf,,Education,Allison Elementary School,30.23567034,-97.69220762,4bba19e27421a593b062c340,515 Vargas Rd,,78741,Austin,TX,United States,515 Vargas Rd,Elementary School,Elementary Schools,Elementary School,8
Brushy Creek,,Education,England Elementary School,30.49387956,-97.75138657,5033a069e4b0ca71ea7d3c81,8801 Pearson Ranch Rd,,78717,Austin,TX,United States,8801 Pearson Ranch Rd,Elementary School,Elementary Schools,Elementary School,15
Spicewood,Spicewood,Education,New Lake Travis Middle School,30.33670793,-98.02855274,5269073711d2ba1c9c763fe6,,,78669,,Texas,United States,Texas,Middle School,Middle Schools,Middle School,21
Oak Hill,,Education,Timy Baranoff Elementary School,30.15437437,-97.85164906,4c35ec08ed37a5934b3c7103,12009 Buckingham Gate Rd,,78748,Austin,TX,United States,12009 Buckingham Gate Rd,Elementary School,Elementary Schools,Elementary School,4
Barton Hills,,Education,Bridge Point Elementary,30.33959342,-97.80558161,4bbe65434e7bd13a4aeb9a7f,,,78746,Austin,TX,United States,"Austin, TX 78746",Elementary School,Elementary Schools,Elementary School,38
Round Rock,,Education,Meridian School,30.53811611,-97.69028061,4e52833252b1fa492db77262,,,,Round Rock,TX,United States,"Round Rock, TX",School,Schools,School,23
Oak Hill,,Education,Patton Elementary School,30.2322685,-97.84568151,4b4f81e9f964a520580927e3,6001 Westcreek Dr,,78749,Austin,TX,United States,6001 Westcreek Dr,Elementary School,Elementary Schools,Elementary School,29
Brushy Creek,,Education,Patsy Sommer Elementary School,30.51723517,-97.75850852,4b6c80e0f964a520413f2ce3,16200 Avery Ranch Blvd,,78717,Austin,TX,United States,16200 Avery Ranch Blvd,Elementary School,Elementary Schools,Elementary School,15
Anderson Mill,,Education,Anderson Mill Elementary,30.45327758,-97.80691963,4bad0e92f964a52029293be3,10610 Salt Mill Holw,,78750,Austin,TX,United States,10610 Salt Mill Holw,Elementary School,Elementary Schools,Elementary School,3
Leander,,Education,Deer Creek Elementary,30.48292652,-97.85316467,4bed7b1d9868a593a26e5d46,,,78641,Leander,TX,United States,"Leander, TX 78641",Elementary School,Elementary Schools,Elementary School,3
Anderson Mill,,Education,Westwood High School,30.45662744,-97.79763366,4b4d2593f964a520a6cc26e3,12400 Mellow Meadow Dr,,78750,Austin,TX,United States,12400 Mellow Meadow Dr,High School,High Schools,High School,3
Anderson Mill,,Education,Spicewood Elementary,30.44544057,-97.80427016,4b4cc8faf964a520c8be26e3,11601 Olson Dr,Anderson Mill,78750,Austin,TX,United States,11601 Olson Dr (Anderson Mill),Elementary School,Elementary Schools,Elementary School,3
Round Rock,,Education,Cedar Ridge High School,30.4931011,-97.64087856,4b7c23dbf964a520837f2fe3,2801 Gattis School Rd,Meister Ln.,78664,Round Rock,TX,United States,2801 Gattis School Rd (Meister Ln.),High School,High Schools,High School,13
Cesar Chavez St,,Education,Austin High School,30.273123,-97.7665035,4b192f31f964a520e7d823e3,1715 W Cesar Chavez St,,78703,Austin,TX,United States,1715 W Cesar Chavez St,High School,High Schools,High School,17
Allandale,,Education,Lamar Middle School,30.3375212,-97.74009968,4b40f4b2f964a52031be25e3,6201 Wynona Ave,,78757,Austin,TX,United States,6201 Wynona Ave,Middle School,Middle Schools,Middle School,11
Round Rock,,Education,McNeil High School,30.44889566,-97.73360252,4b69d24df964a52051b62be3,5720 McNeil Dr,,78729,Austin,TX,United States,5720 McNeil Dr,High School,High Schools,High School,26
Round Rock,,Education,Round Rock Christian Academy,30.50912794,-97.69419883,4b660f69f964a5205f112be3,301 N Lake Creek Dr,,78681,Round Rock,TX,United States,301 N Lake Creek Dr,School,Schools,School,23
Round Rock,,Education,Great Oaks Elementary,30.49589003,-97.73830833,4b901b63f964a520097633e3,16455 S Great Oaks Dr,,78681,Round Rock,TX,United States,16455 S Great Oaks Dr,Elementary School,Elementary Schools,Elementary School,15
Hancock,,Education,Lee Elementary School,30.29201031,-97.72692998,4b8db5a0f964a520d80933e3,3308 Hampton Rd,,78705,Austin,TX,United States,3308 Hampton Rd,Elementary School,Elementary Schools,Elementary School,0
Northwest Hills,,Education,Hyde Park Baptist High School,30.40740452,-97.73034819,4be6da1dcf200f470aeb143c,11400 N Mopac Expy,Braker / North Mo Pac,78759,Austin,TX,United States,11400 N Mopac Expy (Braker / North Mo Pac),High School,High Schools,High School,25
Manor,,Education,LBJ High School,30.31336492,-97.65700711,4b21152af964a520ac3624e3,7309 Lazy Creek Dr,,78724,Austin,TX,United States,7309 Lazy Creek Dr,High School,High Schools,High School,31
Anderson Mill,,Education,Purple Sage Elementary School,30.45737051,-97.82067903,4b87d11cf964a52075cd31e3,11801 Tanglebriar Trl,at El Salido Pkwy.,78750,Austin,TX,United States,11801 Tanglebriar Trl (at El Salido Pkwy.),Elementary School,Elementary Schools,Elementary School,3
901 W Braker Ln,,Education,Cook Elementary,30.37761672,-97.70487289,4b870deaf964a520e5ad31e3,,,78758,Austin,TX,United States,"Austin, TX 78758",Elementary School,Elementary Schools,Elementary School,18
Oak Hill,,Education,Bowie High School,30.18723183,-97.85774054,4bf19f4bd39ad13a9776aa0e,4103 W Slaughter Ln,,78749,Austin,TX,United States,4103 W Slaughter Ln,High School,High Schools,High School,4
Barton Hills,,Education,Barton Hills Elementary,30.25406028,-97.78342003,4b8d317df964a5208fec32e3,,,78704,Austin,TX,United States,"Austin, TX 78704",Elementary School,Elementary Schools,Elementary School,9
