"Neighborhood","Venue Category","Venue","Neighborhood_Latitude","Neighborhood_Longitude","id","location.city","location.state","categories_name","categories_pluralName","location_crossStreet","location_formattedAddress","location_postalCode","location_address"
"Barakhamba Avenue, Connaught Place","Hotel","The Lalit Hotel",28.63111018,77.22744966,"4bb46ce087aa95219724add1","New Delhi","Delhi","Hotel","Hotels","null","Barakhamba Avenue, Connaught Place","India","Barakhamba Avenue, Connaught Place"
"Plot No. 360-362, Sector 29","Hotel","Country Inn & Suites By Carlson Gurgaon Sector 29",28.4620392,77.0676877,"4bb953173db7b713273d229a","New Delhi","Delhi","Hotel","Hotels","null","Plot No. 360-362, Sector 29",122001,"Plot No. 360-362, Sector 29"
"Aerocity","B & B","Hotel Pride Plaza",28.55287242,77.12291625,"565f3abd498e385c1e2bb314","New Delhi","Delhi","Bed & Breakfast","Bed & Breakfasts","null","Aerocity","null","Aerocity"
"New Delhi","B & B","Pacific Inn Eden Royal",28.46410639,77.04969737,"5597e725498e5df6654ca915","New Delhi","Delhi","Bed & Breakfast","Bed & Breakfasts","null","India","null","null"
"New Delhi","B & B","The krishna Inn",28.583587,77.249739,"526e7b82498e589ac69d11f0","New Delhi","Delhi","Bed & Breakfast","Bed & Breakfasts","null","India","null","null"
"A.K.Market","B & B","VV inn",28.64201927,77.21620941,"4fa7a5dce4b0a34ac9204307","New Delhi","Delhi","Bed & Breakfast","Bed & Breakfasts","null","1015, Gali Mantola Main Bazar, Pahar Ganj, New Delhi",110055,"1015, Gali Mantola Main Bazar, Pahar Ganj, New Delhi"
"Sector 92","Hotel","Kwi Bin Kwan Hotel",28.51811218,77.3978653,"50188fb4e4b0deb6b21a0ee1","New Delhi","Delhi","Hotel","Hotels","Sector 92","Zion/Sherwood Tower, O-maxe Forest (Sector 92)","null","Zion/Sherwood Tower, O-maxe Forest"
"Gurgaon","B & B","Airtel Guest House",28.44493135,77.05959726,"4d278de83c795481e0a6c59b","New Delhi","Delhi","Bed & Breakfast","Bed & Breakfasts","null","Gurgaon","null","null"
"New Delhi","B & B","Bansal Bed And Breakfast",28.570067,77.265215,"4eaee2cc5c5ce6e506a38c63","New Delhi","Delhi","Bed & Breakfast","Bed & Breakfasts","null","Delhi","null","null"
"DLF Phase 3","B & B","Casa D'or",28.49718676,77.10026766,"4f03ac50e30090dfdb27252e","New Delhi","Delhi","Bed & Breakfast","Bed & Breakfasts","DLF Phase 3","17, Moulsari Avenue, DLF Phase 3 (DLF Phase 3)","null","17, Moulsari Avenue, DLF Phase 3"
"New Delhi","B & B","Ganga International House",28.63421016,77.16193824,"4e6eda7752b1706317970fc6","New Delhi","Delhi","Bed & Breakfast","Bed & Breakfasts","null","New Delhi","null","null"
"near Electric Sub Station, C-Block, Sector-44","B & B","Hotel Green View Residency",28.55421221,77.33627588,"508aaf09e4b02ba9b0ef52a0","New Delhi","Delhi","Bed & Breakfast","Bed & Breakfasts","null","near Electric Sub Station, C-Block, Sector-44","null","near Electric Sub Station, C-Block, Sector-44"
"Sector 27","B & B","Siesta Hotel",28.57476588,77.3324621,"52861aab11d2b716ed4ea0d9","New Delhi","Delhi","Bed & Breakfast","Bed & Breakfasts","Sector 27","Ashok Marg, A-1 (Sector 27)","null","Ashok Marg, A-1"
"New Delhi","B & B","Hotel Karina",28.54161889,77.29285316,"50c715e8e4b0d67752124897","New Delhi","Delhi","Bed & Breakfast","Bed & Breakfasts","null","India","null","null"
"Defence Colony","B & B","Stallen Hospitality",28.57659146,77.26073433,"4fc49781e4b035d6cb172744","New Delhi","Delhi","Bed & Breakfast","Bed & Breakfasts","Defence Colony","A 153 (Defence Colony)","null","A 153"
"Paschim Marg, DLF City Phase 1","B & B","Seven Seas",28.46970146,77.09549651,"4ed08b1af5b9832ada6364a9","New Delhi","Delhi","Bed & Breakfast","Bed & Breakfasts","Paschim Marg, DLF City Phase 1","B/18/12 (Paschim Marg, DLF City Phase 1)","null","B/18/12"
"New Delhi","B & B","BnB dwaraka",28.5932654,77.0401531,"4f6d8645e4b060033268512f","New Delhi","Delhi","Bed & Breakfast","Bed & Breakfasts","null","India","null","null"
"Ignou Road","B & B","Slumber Bed and Breakfast",28.51727348,77.20571806,"516bf238e4b0ea0f63ec7380","New Delhi","Delhi","Bed & Breakfast","Bed & Breakfasts","Ignou Road","Anupum Enclave (Ignou Road)","null","Anupum Enclave"
"Karol Bagh","B & B","Ramanujams",28.65194381,77.18937833,"521aa84611d2fceee561ac50","New Delhi","Delhi","Bed & Breakfast","Bed & Breakfasts","null","Karol Bagh","null","Karol Bagh"
"New Delhi","B & B","Crown plaza",28.71919415,77.20884537,"5176dea6e4b0ae385afa3414","New Delhi","Delhi","Bed & Breakfast","Bed & Breakfasts","null","India","null","null"
"New Delhi","B & B","Sun Villa Gurgaon",28.484546,77.084928,"57194060498e61b0fd63b5ec","New Delhi","Delhi","Bed & Breakfast","Bed & Breakfasts","null","India","null","null"
"12 Shamnath Marg","B & B","Shamnath Vila",28.68061143,77.22497471,"4f4fdcaae4b03cdd7a98dbb7","New Delhi","Delhi","Bed & Breakfast","Bed & Breakfasts","null","12 Shamnath Marg","null","12 Shamnath Marg"
"C Blcok","B & B","Executive Suites",28.4518644,77.08104143,"52deb6e011d217ce4703cce0","New Delhi","Delhi","Bed & Breakfast","Bed & Breakfasts","null","C Blcok",122002,"C Blcok"
"7a/2 Channa Market W.E.A. Karol Bagh","B & B","The Hospitality Home Bed & Breakfast",28.645964,77.184434,"51b7b84a498eb3038735b7bc","New Delhi","Delhi","Bed & Breakfast","Bed & Breakfasts","null","7a/2 Channa Market W.E.A. Karol Bagh","null","7a/2 Channa Market W.E.A. Karol Bagh"
"New Delhi","B & B","Hotel Gulnar",28.645625,77.183888,"50994f56e4b0b01feeff2609","New Delhi","Delhi","Bed & Breakfast","Bed & Breakfasts","null","India","null","null"
"A-13, Green Wood City Sector-45,","B & B","Aju Japanese Hotel",28.44558048,77.06300592,"4e2671f445ddb79afc61b225","New Delhi","Delhi","Bed & Breakfast","Bed & Breakfasts","null","A-13, Green Wood City Sector-45,","null","A-13, Green Wood City Sector-45,"
"Near Indus Valley Public School","B & B","Hotel Green View Palace",28.61724064,77.35501204,"56634fe9498e7b597648d7f9","New Delhi","Delhi","Bed & Breakfast","Bed & Breakfasts","null","Near Indus Valley Public School","null","Near Indus Valley Public School"
"Old Delhi Road","B & B","Grand Hotel",28.46981747,77.04122681,"4f11984ae4b0f2c2117ef58e","New Delhi","Delhi","Bed & Breakfast","Bed & Breakfasts","null","Old Delhi Road","null","Old Delhi Road"
"Baroda House","B & B","Cp Villa Bed & Breakfast",28.635216,77.207285,"5c8d33ea5ba046002ccf182b","New Delhi","Delhi","Bed & Breakfast","Bed & Breakfasts","null","7A Doctor Lane",110001,"7A Doctor Lane"
"Gurgaon Road","Hotel","Hotel Prince",28.540467,77.130551,"5c8a105cfb8e59002cc35b5f","New Delhi","Delhi","Hotel","Hotels","null","New Delhi 110037",110037,"null"
"East Patel Nagar","B & B","Hotel Regent Grand",28.64316037,77.17307566,"51a05fbc498e3030abbe73c9","New Delhi","Delhi","Bed & Breakfast","Bed & Breakfasts","null","East Patel Nagar","null","East Patel Nagar"
"Sec 45, Gurgaon","B & B","Imperial Park",28.4522287,77.0666304,"4f2d630ae4b00ef1a507af6d","New Delhi","Delhi","Bed & Breakfast","Bed & Breakfasts","null","Sec 45, Gurgaon","null","Sec 45, Gurgaon"
"New Delhi","B & B","Hotel La Vista",28.64882462,77.19839634,"505136ece4b0313e6d03453e","New Delhi","Delhi","Bed & Breakfast","Bed & Breakfasts","null","India","null","null"
"New Delhi","B & B","Hotel Le Seasons, Delhi",28.54726888,77.12544345,"4ecc7851775b0e780d439336","New Delhi","Delhi","Bed & Breakfast","Bed & Breakfasts","null","India","null","null"
"New Delhi","B & B","Crowne Plaza Day Gurgaon",28.46834893,77.05941321,"5075b50de4b00408325a0d07","New Delhi","Delhi","Bed & Breakfast","Bed & Breakfasts","null","India","null","null"
"New Delhi","B & B","Rams Inn",28.631476,77.214317,"4fbcfd64e4b0d3faf0ab82fe","New Delhi","Delhi","Bed & Breakfast","Bed & Breakfasts","null","India","null","null"
"New Delhi","B & B","hotel c inn",28.51324654,77.47106934,"520bb6ae11d2f389195a2ad4","New Delhi","Delhi","Bed & Breakfast","Bed & Breakfasts","null","India","null","null"
"New Delhi","B & B","Hotel Freesia",28.56711177,77.22802853,"564c2d4e498ef866db2e8cfc","New Delhi","Delhi","Bed & Breakfast","Bed & Breakfasts","null","India","null","null"
"New Delhi","B & B","Sky View Hotel",28.64220178,77.21979874,"51692512e4b00d4e3acf3b59","New Delhi","Delhi","Bed & Breakfast","Bed & Breakfasts","null","India","null","null"
"New Delhi","B & B","Hotel Geeta Sar",28.64423752,77.21746063,"53a98947498e3afd64d07bf3","New Delhi","Delhi","Bed & Breakfast","Bed & Breakfasts","null","India","null","null"
"Anand Parbat","B & B","Tomarhospitality- Hotel SPB 87 Delhi",28.64486552,77.18987703,"5412f45b498edd3411326ca9","New Delhi","Delhi","Bed & Breakfast","Bed & Breakfasts","Near Karol Bagh Metro Station","17A/2, West Extension Area Karol Bagh, Pillar No-98 & 99 (Near Karol Bagh Metro Station)",110005,"17A/2, West Extension Area Karol Bagh, Pillar No-98 & 99"
"112A, B-block, Sector 44","B & B","Hanvit Guesthouse",28.58228207,77.37588127,"51101da0e4b0b55944cedd48","New Delhi","Delhi","Bed & Breakfast","Bed & Breakfasts","null","112A, B-block, Sector 44","null","112A, B-block, Sector 44"
"Good Earth City Centre, Opposite Malibu Commercial Complex, Sector 50","B & B","Hotel Formule 1",28.42170287,77.05288499,"545dad1e498edba916d5f7df","New Delhi","Delhi","Bed & Breakfast","Bed & Breakfasts","null","Good Earth City Centre, Opposite Malibu Commercial Complex, Sector 50",122018,"Good Earth City Centre, Opposite Malibu Commercial Complex, Sector 50"
"New Delhi","B & B","Hotel Lohmod",28.55088348,77.13026701,"4f32c212e4b0ef2eb7dd0f98","New Delhi","Delhi","Bed & Breakfast","Bed & Breakfasts","null","India","null","null"
"New Delhi","B & B","Tree Of Life",28.52602561,77.20582474,"4eb9e58ab8f765de71e57bb1","New Delhi","Delhi","Bed & Breakfast","Bed & Breakfasts","null","India","null","null"
"Andrewsganj","B & B","National Insurance Company Guest House Asiad Village",28.546915,77.2167,"59d77fd0dab4b158b78d000e","New Delhi","Delhi","Bed & Breakfast","Bed & Breakfasts","null","New Delhi 110049",110049,"null"
"Delhi High Court","B & B","Red Maple",28.573635,77.219617,"4f1e23eae4b0d98f4c6f9875","New Delhi","Delhi","Bed & Breakfast","Bed & Breakfasts","null","49 Amrit Nagar",110003,"49 Amrit Nagar"
"New Delhi","B & B","Ananda Bed & Breakfast",28.53605892,77.24603553,"52dbd6c011d2ade68afd0e66","New Delhi","Delhi","Bed & Breakfast","Bed & Breakfasts","null","India","null","null"
"New Delhi","B & B","metropolis guest house",28.640013,77.21014,"56ff5376cd1037ef015ece63","New Delhi","Delhi","Bed & Breakfast","Bed & Breakfasts","null","India","null","null"
"New Delhi","Pharmacy","Apollo Pharmacy",28.6348371,77.21761488,"4f05f77d29c22bbeff554636","New Delhi","Delhi","Pharmacy","Pharmacies","null","India","null","null"
"Sector 31","Pharmacy","Deepanshi Medicos",28.453635,77.051526,"56b76bfb498e2be2b19fd352","New Delhi","Delhi","Pharmacy","Pharmacies","null","Sector 31","null","Sector 31"
"Gurugram 122001","Pharmacy","Sewati Medicose",28.449514,77.05705,"5c51b6cfc58ed7002cec5466","New Delhi","Delhi","Pharmacy","Pharmacies","null","Gurugram 122001",122001,"null"
"New Delhi","Pharmacy","Bonton",28.63486142,77.28466156,"521876ff498e58df21e8cbf5","New Delhi","Delhi","Pharmacy","Pharmacies","null","India","null","null"
"New Delhi","Pharmacy","Religare Wellness",28.48047638,77.08809662,"5018db4ae4b08659764cf942","New Delhi","Delhi","Pharmacy","Pharmacies","null","India","null","null"
"Dabri","Pharmacy","Aggarwal medicos",28.60139837,77.08380107,"4ff45a0ee4b0aeae9d3e94ef","New Delhi","Delhi","Pharmacy","Pharmacies","Pocket 6, Dwarka","Nasirpur (Pocket 6, Dwarka)",110045,"Nasirpur"
"Noida 201301","Pharmacy","Apollo PHARMACY",28.56833,77.318068,"5b251e6ac876c8002cef10d1","New Delhi","Delhi","Pharmacy","Pharmacies","null","Noida 201301",201301,"null"
"2, Plot No. - 96, Sector - 15, Jharsa Road","Pharmacy","Apollo Pharmacy",28.453482,77.0514,"52b1e261498e9cef18ab84d5","New Delhi","Delhi","Pharmacy","Pharmacies","null","2, Plot No. - 96, Sector - 15, Jharsa Road","null","2, Plot No. - 96, Sector - 15, Jharsa Road"
"New Delhi","Pharmacy","Popular Medicos",28.57367,77.230333,"4c5e8ff12815c928aff4b767","New Delhi","Delhi","Pharmacy","Pharmacies","null","India","null","null"
"New Delhi","Pharmacy","Apollo Medical Store",28.60551491,77.29013204,"4f9ea69ee4b020e61150336e","New Delhi","Delhi","Pharmacy","Pharmacies","null","India","null","null"
"Shopping Mall, Arjun Marg","Pharmacy","Religare Wellness",28.46593727,77.0993042,"4c3b2f2cd94dc9b6725affe7","New Delhi","Delhi","Pharmacy","Pharmacies","null","Shopping Mall, Arjun Marg","null","Shopping Mall, Arjun Marg"
"New Delhi","Pharmacy","Baxico Medicate",28.5674847,77.24956027,"511c84e8e4b017a41d58d169","New Delhi","Delhi","Pharmacy","Pharmacies","null","India","null","null"
"Amarpali Greens","Pharmacy","Religare Wellness",28.6317383,77.3659754,"4e147efae4cd473c9690393a","New Delhi","Delhi","Pharmacy","Pharmacies","null","Amarpali Greens","null","Amarpali Greens"
"C.C.I.","Pharmacy","Vasundhra chemist",28.68107605,77.20698547,"4fd47f89e4b02119797a395d","New Delhi","Delhi","Pharmacy","Pharmacies","Jawahar Nagar","Bunglow Road (Jawahar Nagar)",110007,"Bunglow Road"
"DLF Sec IV","Pharmacy","Apollo Pharmacy",28.45730072,77.08408208,"4fe6af59e4b01b7b6c253d13","New Delhi","Delhi","Pharmacy","Pharmacies","DLF Sec IV","Sushant Vyapar Kendra (DLF Sec IV)","null","Sushant Vyapar Kendra"
"New Delhi","Pharmacy","Guardian Pharmacy",28.40606504,77.04233236,"4e5638b9a809ca773dfd04fe","New Delhi","Delhi","Pharmacy","Pharmacies","null","India","null","null"
"Masood Pur","Pharmacy","Religare Wellness -Vasant Kunj B9",28.52708169,77.14882811,"4e02cf3fe4cdbd9a51759ad9","New Delhi","Delhi","Pharmacy","Pharmacies","null","2, Pocket 8 & 9, Vasant Kunj",110070,"2, Pocket 8 & 9, Vasant Kunj"
"Dwarka","Pharmacy","Health & Care",28.59541,77.048545,"5399cbf2498eda0a5f8291d1","New Delhi","Delhi","Pharmacy","Pharmacies","Dwarka","Sector 12 (Dwarka)","null","Sector 12"
"New Delhi","Pharmacy","Health Square",28.55255813,77.21139432,"4ee706e46da14e7d9c1f3cf8","New Delhi","Delhi","Pharmacy","Pharmacies","null","India","null","null"
"Shop Number 208, Vardhaman Cee Dee Plaza, Sector 11, Plot Number 6, Dwarka","Pharmacy","Art of living divine shop",28.59592297,77.04969175,"53535924498e42d9a1137c12","New Delhi","Delhi","Pharmacy","Pharmacies","null","Shop Number 208, Vardhaman Cee Dee Plaza, Sector 11, Plot Number 6, Dwarka","null","Shop Number 208, Vardhaman Cee Dee Plaza, Sector 11, Plot Number 6, Dwarka"
"New Delhi","Pharmacy","98.3 Pharmacy",28.56593259,77.24860052,"51111029e4b0e95e219de647","New Delhi","Delhi","Pharmacy","Pharmacies","null","India","null","null"
"New Delhi","Pharmacy","R.K Medicos",28.605481,77.289162,"4fa2245ce4b07ed2182c45d2","New Delhi","Delhi","Pharmacy","Pharmacies","null","India","null","null"
"Saket","Food & Drink","J Block Market Saket",28.53627604,77.29502194,"4bd09eff9854d13a7e17f84d","New Delhi","Delhi","Food & Drink Shop","Food & Drink Shops","Saket","J Block Community Center (Saket)","null","J Block Community Center"
"New Delhi","Pharmacy","saket city hospital",28.52893849,77.21335372,"5178e499e4b0eafc77406fb7","New Delhi","Delhi","Pharmacy","Pharmacies","null","India","null","null"
"Vasant Vihar-1","Pharmacy","Religare Wellness - Palam Marg",28.57252984,77.16236511,"4e004b9baeb76b6109847327","New Delhi","Delhi","Pharmacy","Pharmacies","null","8, Palam Marg, Vasant Vihar",110057,"8, Palam Marg, Vasant Vihar"
"Qutab Plaza Market, DLF City, Phase - 1","Pharmacy","Body Care Chemists",28.47193568,77.1018362,"4c45b62c8c1f20a1d4233e99","New Delhi","Delhi","Pharmacy","Pharmacies","null","Qutab Plaza Market, DLF City, Phase - 1",122002,"Qutab Plaza Market, DLF City, Phase - 1"
"New Delhi","Pharmacy","Global Hospital",28.66561699,77.08251953,"510abb3ee4b0d3070a4f3f04","New Delhi","Delhi","Pharmacy","Pharmacies","null","India","null","null"
"MG Road","Pharmacy",98.4,28.481197,77.086177,"4f4bc007e4b0b8ab49efdfa4","New Delhi","Delhi","Pharmacy","Pharmacies","MG Road","Central Arcade (MG Road)","null","Central Arcade"
"Greater Noida","Pharmacy","Ratan Medicos",28.47013836,77.50624816,"5101073ee4b0dbb0c5fe5f0f","New Delhi","Delhi","Pharmacy","Pharmacies","null","Greater Noida","null","null"
"Sushant Estate","Pharmacy","Twenty Twenty Pharmacy",28.444166,77.076006,"5017e099e4b0e3bcfc3498cf","New Delhi","Delhi","Pharmacy","Pharmacies","null","Sushant Estate","null","Sushant Estate"
"New Delhi","Pharmacy","shri kamal medicos- alaknanda",28.52806941,77.24802803,"4f2e5e7ee4b062ad2c0132f4","New Delhi","Delhi","Pharmacy","Pharmacies","null","India","null","null"
"New Delhi","Pharmacy","Sunrise Medicos",28.59771,77.319997,"55fec61c498eb461205d42cb","New Delhi","Delhi","Pharmacy","Pharmacies","null","India","null","null"
"New Delhi","Pharmacy","Bhandari Homeopathy",28.467296,77.082415,"55df130d498ef7a5c24b8684","New Delhi","Delhi","Pharmacy","Pharmacies","null","India","null","null"
"New Delhi","Pharmacy","Apollo",28.7154912,77.1344893,"4e8ffe55b8f79f71de4feb22","New Delhi","Delhi","Pharmacy","Pharmacies","null","New Delhi","null","null"
"Jal Vayu Vihar Shopping Complex","Pharmacy","Super Medicos",28.57971684,77.33995199,"4ff5ad37e4b00ee3e5669268","New Delhi","Delhi","Pharmacy","Pharmacies","Jal Vayu Vihar Shopping Complex","Sector 25, Opposite Bal Bharti School (Jal Vayu Vihar Shopping Complex)",201301,"Sector 25, Opposite Bal Bharti School"
"Gurugram 122102","Pharmacy","Apollo Pharmacy",28.412792,77.055573,"59ca78a46c08d140cc469736","New Delhi","Delhi","Pharmacy","Pharmacies","null","Gurugram 122102",122102,"null"
"New Delhi","Pharmacy","Dev nagar karol bag new delhi",28.65328662,77.1872613,"4fabcce0e4b0be1a3d89cac5","New Delhi","Delhi","Pharmacy","Pharmacies","null","India","null","null"
"Shopprix Mall","Pharmacy","Guardian Pharmacy",28.597078,77.364922,"51a5b6fb498e3a0a63e00a68","New Delhi","Delhi","Pharmacy","Pharmacies","null","Shopprix Mall","null","Shopprix Mall"
"DLF Plaza Market, DLF City Phase - 1","Pharmacy","98.4 Chemists",28.47116637,77.10200411,"4c6d5c50a437224bd6c82cb1","New Delhi","Delhi","Pharmacy","Pharmacies","null","DLF Plaza Market, DLF City Phase - 1",122002,"DLF Plaza Market, DLF City Phase - 1"
"New Delhi","Pharmacy","Nath Brothers",28.63485527,77.21760559,"4f708a72e4b0ca47b3aec2a7","New Delhi","Delhi","Pharmacy","Pharmacies","null","India","null","null"
"F Block East of Kailash","Pharmacy","Apollo Pharmacy (24 Hour)",28.55434154,77.24330664,"4dc056c143a147cd6ed6c839","New Delhi","Delhi","Pharmacy","Pharmacies","null","F Block East of Kailash","null","F Block East of Kailash"
"South City Arcade","Pharmacy","Narayani Chemist",28.456903,77.06338,"5c2cdb6a4c954c002c9372ac","New Delhi","Delhi","Pharmacy","Pharmacies","null","South City Arcade",122003,"South City Arcade"
"Derawal Nagar","Pharmacy","Penta Medicos",28.699413,77.191689,"51507e76e4b05bcb36eca3d7","New Delhi","Delhi","Pharmacy","Pharmacies","Derawal Nagar","Vardhman Shopping Complex (Derawal Nagar)","null","Vardhman Shopping Complex"
"Gurugram 122018","Pharmacy","White Knight Medicos",28.421959,77.05249,"5aae0c01febf317377059832","New Delhi","Delhi","Pharmacy","Pharmacies","null","Gurugram 122018",122018,"null"
"Gurugram 122017","Pharmacy","Cambridge Chemist",28.510119,77.026718,"59a0f1aa75a6ea40d190d342","New Delhi","Delhi","Pharmacy","Pharmacies","null","Gurugram 122017",122017,"null"
"New Delhi","Pharmacy","Dev Medicos",28.70757062,77.16296609,"51168bd1e4b08106297ba637","New Delhi","Delhi","Pharmacy","Pharmacies","null","India","null","null"
"New Delhi","Grocery Store","Big Apple",28.64338367,77.21427446,"5128ae3ee4b069188c6334de","New Delhi","Delhi","Grocery Store","Grocery Stores","null","New Delhi",,"New Delhi"
"DLF City, Phase 1","Supermarket","Modern Bazaar",28.46644309,77.09912801,"4c9cb74a03133704beb057d5","New Delhi","Delhi","Supermarket","Supermarkets","DLF City, Phase 1","Shop #23-25, Shopping Mall, Arjun Marg (DLF City, Phase 1)",,"Shop #23-25, Shopping Mall, Arjun Marg"
"Jawahar Nagar","Grocery Store","24SEVEN",28.67873199,77.20803735,"4f4acef5e4b0eddb5396c7e1","New Delhi","Delhi","Grocery Store","Grocery Stores","Jawahar Nagar","SN 23, MCD No 5880, Gr Flr, Sai Dhaam, Near Malka Ganj Chowk (Jawahar Nagar)",,"SN 23, MCD No 5880, Gr Flr, Sai Dhaam, Near Malka Ganj Chowk"
"New Delhi","Grocery Store","Venkateswara Stores",28.4826196,77.49822288,"527642f511d2c881e00a3872","New Delhi","Delhi","Grocery Store","Grocery Stores","null","India",,"null"
"New Delhi","Grocery Store","Verma Store",28.51767579,77.24211217,"4f984a85e4b0bafe889f9ca2","New Delhi","Delhi","Grocery Store","Grocery Stores","null","India",,"null"
"Shop Number 2","Grocery Store","Republic of Chicken",28.63182384,77.0908713,"55689098498e15ee7b5ddf06","New Delhi","Delhi","Grocery Store","Grocery Stores","Shop Number 2","B2B/1 (Shop Number 2)",,"B2B/1"
"New Delhi","Grocery Store","Mother Dairy",28.65190645,77.35894843,"5176eb56e4b0025d299df880","New Delhi","Delhi","Grocery Store","Grocery Stores","null","India",,"null"
"Vijaynagar road","Grocery Store","Big Apple",28.69696838,77.20470742,"4f2a7e3ce4b012389a15301d","New Delhi","Delhi","Grocery Store","Grocery Stores","Vijaynagar road","Kingsway Camp,north Delhi (Vijaynagar road)",,"Kingsway Camp,north Delhi"
"New Delhi","Grocery Store","Safal",28.473339,77.104147,"4f937699e4b0ab5f0a12a7d9","New Delhi","Delhi","Grocery Store","Grocery Stores","null","India",,"null"
"New Delhi","Grocery Store","Radhe Krishna Mixture Shop",28.66898314,77.33049908,"511fa195e4b0841ee0fbf7d9","New Delhi","Delhi","Grocery Store","Grocery Stores","null","India",,"null"
"New Delhi","Grocery Store","Power Grid Market",28.4547364,77.07483622,"4fc0cecce4b08acaf460fe58","New Delhi","Delhi","Grocery Store","Grocery Stores","null","India",,"null"
"Saket","Grocery Store","Gourmet Food Bazaar",28.529142,77.219551,"4d9d77ce83f36ea8056eb894","New Delhi","Delhi","Grocery Store","Grocery Stores","Saket","Ground Floor, Select CityWalk (Saket)",,"Ground Floor, Select CityWalk"
"New Delhi","Grocery Store","Health is Wealth",28.573215,77.230439,"4eabcc996c250fcc74bf0ba7","New Delhi","Delhi","Grocery Store","Grocery Stores","null","Delhi",,"null"
"Bara bazaar road, old rajender nagar","Grocery Store","Big Apple",28.63990313,77.1828418,"506aacbae4b0499adeb07520","New Delhi","Delhi","Grocery Store","Grocery Stores","Bara bazaar road, old rajender nagar","Bara bazaar road, old rajender nagar",,"null"
"Vasant Vihar","Grocery Store","Daily Pick",28.55880289,77.16403887,"4f8aa1e4e4b0b1c4b0d4f219","New Delhi","Delhi","Grocery Store","Grocery Stores","Vasant Vihar","20-B, Community Center, Basant Lok Market (Vasant Vihar)",,"20-B, Community Center, Basant Lok Market"
"DLF Phase 1","Grocery Store","Fresh Produce Shoppe",28.46609989,77.09881217,"4ca0b497604c76b096fd957b","New Delhi","Delhi","Grocery Store","Grocery Stores","DLF Phase 1","Arjun Marg (DLF Phase 1)",,"Arjun Marg"
"Chaudhary Harsukh Singh Marg","Grocery Store","Reliance Fresh",28.56254664,77.19512276,"4c8651fcd92ea093e31d6d72","New Delhi","Delhi","Grocery Store","Grocery Stores","null","Chaudhary Harsukh Singh Marg",,"Chaudhary Harsukh Singh Marg"
"New Delhi","Grocery Store","Food bazar, shipra mall",28.63579173,77.3699046,"4de65ed5d1648041649dbf00","New Delhi","Delhi","Grocery Store","Grocery Stores","null","India",,"null"
"East Of Kailash","Supermarket","Sabka Bazar",28.55697075,77.24465847,"4eeaf1d7e3000c69e0fe981d","New Delhi","Delhi","Supermarket","Supermarkets","null","East Of Kailash",,"East Of Kailash"
"Gurugram 122018","Grocery Store","Planet Needs",28.419344,77.05226,"59998d5f8ad62e36c290c07d","New Delhi","Delhi","Grocery Store","Grocery Stores","null","Gurugram 122018",,"null"
"Gurugram 122018","Grocery Store","Modern Bazaar",28.427143,77.05715,"5c7b6ba4cad1b6002d18517c","New Delhi","Delhi","Grocery Store","Grocery Stores","null","Gurugram 122018",,"null"
"Gurgaon 122001","Grocery Store","Needs Gourmet Hypermart",28.40243978,77.04544146,"4eed9c610aaf1d45b222c171","New Delhi","Delhi","Grocery Store","Grocery Stores","null","Gurgaon 122001",,"null"
"New Delhi","Grocery Store","Modern Bazaar",28.593971,77.04329,"5843bb7b0393cc195f08a785","New Delhi","Delhi","Grocery Store","Grocery Stores","null","New Delhi 110075",,"null"
"Gurugram 122017","Convenience Store","24Seven",28.511343,77.039608,"5bba206ac58ed7002cb80b97","New Delhi","Delhi","Convenience Store","Convenience Stores","null","Gurugram 122017",,"null"
"Shiwailik road","Grocery Store","Daily needs ,Haus Khaz",28.54080093,77.21242175,"4f313709e4b0c190b8e81a95","New Delhi","Delhi","Grocery Store","Grocery Stores","Shiwailik road","Haus Khaz (Shiwailik road)",,"Haus Khaz"
"Munirka","Grocery Store","Keysi Market",28.54808865,77.167274,"4f3ac370e4b0039c25c7b3b9","New Delhi","Delhi","Grocery Store","Grocery Stores","Munirka","JNU (Munirka)",,"JNU"
"New Delhi","Grocery Store","Honey Money Top",28.457706,77.04463,"5b61c571e97dfb0037e33f0d","New Delhi","Delhi","Grocery Store","Grocery Stores","null","India",,"null"
"Lajpat nagar","Grocery Store","Safal Pure Veg - Central Market",28.568289,77.242156,"4d5d4b2b590b224bb967aa6d","New Delhi","Delhi","Grocery Store","Grocery Stores","null","Lajpat nagar",,"Lajpat nagar"
"New Delhi","Grocery Store","Sumitra",28.60286756,77.23745336,"4f2e396ee4b03caf53a8f392","New Delhi","Delhi","Grocery Store","Grocery Stores","null","India",,"null"
"New Delhi","Grocery Store","37 Krishna Super Marche Dwarka",28.595457,77.0412,"5bfd426daa6c95002cd86095","New Delhi","Delhi","Grocery Store","Grocery Stores","null","Delhi 110075",,"null"
"New Delhi","Organic Grocery","Patanjali Store",28.581652,77.071088,"5ec0cd5d9990b8000702522b","New Delhi","Delhi","Organic Grocery","Organic Groceries","null","New Delhi 110075",,"null"
"Dwarka","Grocery Store","More.",28.60454803,77.03683923,"539f0f96498e06f4cc8a8157","New Delhi","Delhi","Grocery Store","Grocery Stores","Dwarka","Hotel radisson blu (Dwarka)",,"Hotel radisson blu"
"Gurugram 122005","Grocery Store","Honey Money Top",28.43633,77.13481,"5d3d4ca269e3ac00086a97c7","New Delhi","Delhi","Grocery Store","Grocery Stores","null","Gurugram 122005",,"null"
"New Delhi","Grocery Store","Needs Supermarket",28.41369895,77.06370652,"4f857eaee4b042f37bb8f24f","New Delhi","Delhi","Grocery Store","Grocery Stores","null","India",,"null"
"Community Center","Grocery Store","Modern Bazaar",28.56271066,77.2689725,"50ab7b60e4b02dee074c1141","New Delhi","Delhi","Grocery Store","Grocery Stores","Community Center","New Friends Colony (Community Center)",,"New Friends Colony"
"Gurugram 122022","Grocery Store","Le Marche",28.444902,77.08088,"5d42f1a94737a20007d3fedd","New Delhi","Delhi","Grocery Store","Grocery Stores","null","Gurugram 122022",,"null"
"B1, Vasant Kunj","Convenience Store","24 Seven",28.524626,77.159462,"5d7e0a1004b75b000811917f","New Delhi","Delhi","Convenience Store","Convenience Stores","null","B1, Vasant Kunj",,"B1, Vasant Kunj"
"SCO-78, Shopping Complex, Sec 14","Grocery Store","Spencer's",28.47325588,77.04763971,"4d4e9a5a20d3236ae8369d28","New Delhi","Delhi","Grocery Store","Grocery Stores","null","SCO-78, Shopping Complex, Sec 14",,"SCO-78, Shopping Complex, Sec 14"
"main market NIT","Grocery Store","Bhagtan Di Hatti",28.380976,77.29988,"57dbbdad498e58ab9db5092c","New Delhi","Delhi","Grocery Store","Grocery Stores","main market NIT","127, 128 & 164 (main market NIT)",,"127, 128 & 164"
"Sec93","Grocery Store","every little thing",28.520583,77.384265,"5bb2f7f412c8f0002c44e1de","New Delhi","Delhi","Grocery Store","Grocery Stores","Sec93","Gejha Market (Sec93)",,"Gejha Market"
"C Block, Sushant Lok 1.","Grocery Store","Ever Green",28.453158,77.080974,"596a1c131fa76313eabcf62d","New Delhi","Delhi","Grocery Store","Grocery Stores","null","C Block, Sushant Lok 1.",,"C Block, Sushant Lok 1."
"Gh?zi?b?d 201002","Grocery Store","Muskan Bakers And Confectioners",28.682906,77.486699,"5a857fcff0b49033ebadd328","New Delhi","Delhi","Grocery Store","Grocery Stores","null","Gh?zi?b?d 201002",,"null"
"New Delhi","Grocery Store","Raj Mandir Super Market",28.698682,77.11788,"59688569bcbf7a5c8aba7938","New Delhi","Delhi","Grocery Store","Grocery Stores","null","New Delhi 110085",,"null"
"New Ashok Nagar","Grocery Store","Mother dairy",28.58833635,77.3047524,"4cffa8924f56b60ccccf9d37","New Delhi","Delhi","Grocery Store","Grocery Stores","New Ashok Nagar","Eastend apartments (New Ashok Nagar)",,"Eastend apartments"
"Munirka DDA Flats, Munirka","Grocery Store","Mother Dairy",28.55302219,77.17439532,"4b6aed49f964a52039e72be3","New Delhi","Delhi","Grocery Store","Grocery Stores","null","Munirka DDA Flats, Munirka",,"Munirka DDA Flats, Munirka"
"Baroda House","Apparel","H&M",28.63417,77.2192,"5811a07638fa65669b796c53","New Delhi","Delhi","Clothing Store","Clothing Stores","null","Inner Circle, B Block, Connaught Place",110001,"Inner Circle, B Block, Connaught Place"
"Tagore Garden","Apparel","Zara | ?????",28.64246809,77.10653617,"4d874b038de9721ef4576a51","New Delhi","Delhi","Clothing Store","Clothing Stores","Tagore Garden","Ground Floor Pacific Mall (Tagore Garden)","null","Ground Floor Pacific Mall"
"Select City Walk","Apparel","Zara",28.5284908,77.21879395,"4c00d637df6c0f47d6fe8b22","New Delhi","Delhi","Clothing Store","Clothing Stores","Select City Walk","Press Enclave Marg, Pushp Vihar (Select City Walk)","null","Press Enclave Marg, Pushp Vihar"
"Metropolis mall","Apparel","Lifestyle",28.47926224,77.08158363,"4f9d595be4b06091698114c2","New Delhi","Delhi","Clothing Store","Clothing Stores","null","Metropolis mall","null","Metropolis mall"
"Ambience mall","Apparel","Zara",28.50568645,77.09575503,"51bc11d1498e1315efdf9b6c","New Delhi","Delhi","Clothing Store","Clothing Stores","null","Ambience mall","null","Ambience mall"
"Distt. Court Complex  Saket   ","Apparel","H&M",28.5280842,77.2182409,"561147ae498e7627cc982741","New Delhi","Delhi","Clothing Store","Clothing Stores","Saket","Select Citywalk, District Centre, Saket (Saket)",110017,"Select Citywalk, District Centre, Saket"
"Greater Noida 201308","Shoes","RELAXO",28.481606,77.49866,"5a157cd158002c7dfce12325","New Delhi","Delhi","Shoe Store","Shoe Stores","null","Greater Noida 201308",201308,"null"
"Noida 201301","Apparel","Zara",28.568043,77.32083,"5a16aaf1acb00b186a1d84de","New Delhi","Delhi","Clothing Store","Clothing Stores","null","Noida 201301",201301,"null"
"Lajpat Nagar","Men's Store","Reid & Taylor",28.56806795,77.24614778,"4db17535fa8ca4b3e9f745eb","New Delhi","Delhi","Men's Store","Men's Stores","null","Lajpat Nagar","null","Lajpat Nagar"
"Ambience Mall","Apparel","Levi's Store",28.50395641,77.096979,"4e18567dd4c062b044e6a31c","New Delhi","Delhi","Clothing Store","Clothing Stores","null","Ambience Mall","null","Ambience Mall"
"Sector 18","Apparel","H&M",28.56724472,77.32122456,"575971a9498e16b16cb20658","New Delhi","Delhi","Clothing Store","Clothing Stores","Sector 18","Plot No - M 03, Sector 18 (Sector 18)",201301,"Plot No - M 03, Sector 18"
"Select City walk, Saket","Boutique","Massimo Dutti",28.519665,77.225381,"5735b0a4498e16adb63c867f","New Delhi","Delhi","Boutique","Boutiques","null","Select City walk, Saket","null","Select City walk, Saket"
"The Great India Place","Apparel","Marks & Spencer",28.56810352,77.32504731,"4e479f16887781a619bab541","New Delhi","Delhi","Clothing Store","Clothing Stores","null","The Great India Place","null","The Great India Place"
"Shahpur jat","Apparel","Needledust",28.5496,77.2142,"56923c72498ee87de0ce5ca0","New Delhi","Delhi","Clothing Store","Clothing Stores","Shahpur jat","40 B, Ground Floor (Shahpur jat)","null","40 B, Ground Floor"
"P. P. Tower","Apparel","Stanmax",28.69412478,77.14971565,"4f1c09cee4b044fd36219887","New Delhi","Delhi","Clothing Store","Clothing Stores","P. P. Tower","P. P. Tower","null","null"
"New Delhi","Apparel","Fabindia",28.52878869,77.21960786,"4ff9772fe4b05369d0cebea0","New Delhi","Delhi","Clothing Store","Clothing Stores","null","India","null","null"
"Greater Kailash","Apparel","Fabindia",28.55651646,77.23319814,"4c600d3c3986e21eac4c934f","New Delhi","Delhi","Clothing Store","Clothing Stores","Greater Kailash","5 N-Block Market (Greater Kailash)","null","5 N-Block Market"
"Saket","Apparel","Shoppers Stop",28.52978961,77.21955299,"4c8537ad77be76b0a80cb576","New Delhi","Delhi","Clothing Store","Clothing Stores","Saket","MGF Mall (Saket)","110 017","MGF Mall"
"Masood Pur","Apparel","Uniqlo",28.541481,77.15549,"5d971f63cd9cbf0008d71b3c","New Delhi","Delhi","Clothing Store","Clothing Stores","Nelson Mandela Marg","Ambience Mall (Nelson Mandela Marg)",110070,"Ambience Mall"
"Gurugram 122002","Apparel","Uniqlo",28.494223,77.08754,"5de272674c007a0008c0a6e8","New Delhi","Delhi","Clothing Store","Clothing Stores","null","Gurugram 122002",122002,"null"
"Baroda House","Apparel","Fabindia",28.63201193,77.21772911,"4e2ab5758877b69d49d7c525","New Delhi","Delhi","Clothing Store","Clothing Stores","Connaught Place","A-1 Hamilton House, Connaught Place (Connaught Place)",110001,"A-1 Hamilton House, Connaught Place"
"Distt. Court Complex  Saket   ","Apparel","Uniqlo",28.528598,77.216252,"5f8083d2d1f2fd3b2f5359c4","New Delhi","Delhi","Clothing Store","Clothing Stores","null","DLF Avenue",110017,"DLF Avenue"
"New Delhi","Apparel","WESTSIDE",28.564405,77.32161,"57e29055498eb7f1618983ba","New Delhi","Delhi","Clothing Store","Clothing Stores","null","India","null","null"
"South Extension","Boutique","Heritage Handloom",28.56933437,77.22019172,"509e5c18e4b01b9e498757ac","New Delhi","Delhi","Boutique","Boutiques","null","South Extension","null","South Extension"
"New Delhi","Apparel","Scan N Shop",28.55144755,77.08657188,"529c3cf6498e69a0d835dbdf","New Delhi","Delhi","Clothing Store","Clothing Stores","null","India","null","null"
"D.E.S.U. Colony","Shoes","Tod's",28.54326573,77.15702913,"4fc9e2a3e4b044ecbf5d0fa5","New Delhi","Delhi","Shoe Store","Shoe Stores","Vasant Kunj","Shop 122, Emporio (Vasant Kunj)",110058,"Shop 122, Emporio"
"Kidwai Nagar East","Boutique","Shiv Saree Bazar",28.577975,77.196798,"5cbac35c23bb8e00381a999a","New Delhi","Delhi","Boutique","Boutiques","null","Sarojini Nagar Market",110023,"Sarojini Nagar Market"
"New Delhi","Apparel","Manyavar",28.56829457,77.22221834,"51ce9294498e58a9ed4f9407","New Delhi","Delhi","Clothing Store","Clothing Stores","null","India","null","null"
"Mahipalpur","Shoes","Nike Factory Store",28.546422,77.124199,"57262bd9498e86d8cd7895ab","New Delhi","Delhi","Shoe Store","Shoe Stores","null","Mahipalpur","null","Mahipalpur"
"Amar Colony","Furniture / Home","Fabindia",28.565508,77.23795,"5c9890b3f0b490002cc6bb2d","New Delhi","Delhi","Furniture / Home Store","Furniture / Home Stores","null","Lajpat Nagar",110024,"Lajpat Nagar"
"Opp Sector C-3","Apparel","Fab India",28.53239812,77.15125922,"4c53d576fd2ea593044f1829","New Delhi","Delhi","Clothing Store","Clothing Stores","Opp Sector C-3","Vasant Arcade (Opp Sector C-3)","null","Vasant Arcade"
"Sohna Road","Apparel","Shopper's Stop",28.41342474,77.04219743,"4f786195e4b0488e2fc91afa","New Delhi","Delhi","Clothing Store","Clothing Stores","Sohna Road","Spaze Hi-Tech Park (Tower A) (Sohna Road)","null","Spaze Hi-Tech Park (Tower A)"
"Ashok Nagar","Apparel","Tummy Section",28.63739338,77.10084648,"4df8c5f8aeb70af3f277ae1d","New Delhi","Delhi","Clothing Store","Clothing Stores","null","Ashok Nagar",110018,"Ashok Nagar"
"Nelson Mandela Marg, Vasant Kunj","Boutique","Hugo Boss @DLF Emporio",28.54329567,77.15710777,"4f19c1dae4b04692a0e49ca6","New Delhi","Delhi","Boutique","Boutiques","Nelson Mandela Marg, Vasant Kunj","DLF Emporio Mall (Nelson Mandela Marg, Vasant Kunj)","null","DLF Emporio Mall"
"32 khan market","Boutique","Anokhi",28.6003805,77.22785872,"4b556726f964a52076e327e3","New Delhi","Delhi","Boutique","Boutiques","null","32 khan market","null","32 khan market"
"New Delhi","Women's Store","Global Desi",28.634937,77.21981,"569ca9ea498e4dbd78817743","New Delhi","Delhi","Women's Store","Women's Stores","null","India","null","null"
"D4 South Extension Part 2, New Delhi","Apparel","Pantaloons",28.56821563,77.22160081,"4ed7fefeaf245ee23ef25c79","New Delhi","Delhi","Clothing Store","Clothing Stores","null","D4 South Extension Part 2, New Delhi","110 049","D4 South Extension Part 2, New Delhi"
"Karol Bagh","Women's Store","Meena Bazar",28.64777322,77.1913774,"4f438a73e4b0c2ab9ae150ba","New Delhi","Delhi","Women's Store","Women's Stores","null","Karol Bagh","null","Karol Bagh"
"The Great India Place","Apparel","SHOPPERS STOP",28.56820367,77.3263598,"4e47a2bcc65bd6ffbea1da3b","New Delhi","Delhi","Clothing Store","Clothing Stores","null","The Great India Place","null","The Great India Place"
"Kidwai Nagar East","Shoes","Stelatoes",28.5779,77.196107,"5c5abaa064c8e1002c59765b","New Delhi","Delhi","Shoe Store","Shoe Stores","null","New Delhi 110023",110023,"null"
"V3S Mall","Apparel","Reliance Trends",28.63709897,77.28669829,"4ea2c4868b81a02f89b66971","New Delhi","Delhi","Clothing Store","Clothing Stores","null","V3S Mall","null","V3S Mall"
"South Extension","Apparel","Marks & Spencer",28.56855903,77.22271797,"519878d1498e28472297d021","New Delhi","Delhi","Clothing Store","Clothing Stores","null","South Extension","null","South Extension"
"Sector 6","Apparel","Paytm Mall - India's Best Online Shopping Site",28.59181342,77.31968522,"5a0e8b2f6bd36b53af98bf43","New Delhi","Delhi","Clothing Store","Clothing Stores","Sector 6","F-44, Udhyog Marg, F Block (Sector 6)",201301,"F-44, Udhyog Marg, F Block"
"Gurugram 122002","Shoes","Kala Niketan",28.478704,77.08061,"5e26ebcdd7da760008dbdfc7","New Delhi","Delhi","Shoe Store","Shoe Stores","null","Gurugram 122002",122002,"null"
"National Highway - 8, Ambience Island","Apparel","H&M",28.50501376,77.0968016,"56ffb554498e07eb8951265b","New Delhi","Delhi","Clothing Store","Clothing Stores","null","National Highway - 8, Ambience Island",122002,"National Highway - 8, Ambience Island"
"Sector 18","Apparel","Lifestyle",28.56772085,77.32194553,"570a56dfcd1024004b3ee187","New Delhi","Delhi","Clothing Store","Clothing Stores","Sector 18","A201 First Floor (Sector 18)",201301,"A201 First Floor"
"Amar Colony","Women's Store","Narang Sons",28.569427,77.241112,"5aa51ead86bc4932c5e278b4","New Delhi","Delhi","Women's Store","Women's Stores","null","New Delhi 110024",110024,"null"
"Masood Pur","Shoes","Salvatore Ferragamo",28.5412638,77.15510836,"4e2c22d2fa76bbf847e03265","New Delhi","Delhi","Shoe Store","Shoe Stores","null","Nelson Mandela Marg Road, Shop No. 121",110070,"Nelson Mandela Marg Road, Shop No. 121"
"Kidwai Nagar East","Women's Store","Khushi Sarees",28.57742734,77.19562676,"4efaf42261af454601660614","New Delhi","Delhi","Women's Store","Women's Stores","Sarojni Nagar Market","#39 (Sarojni Nagar Market)",110023,"#39"
"Balbir Nagar","Apparel","V-Mart",28.6893903,77.28765773,"4e539ac41838136747302b7b","New Delhi","Delhi","Clothing Store","Clothing Stores","Shahdara","C 7, Jyoti Nagar West, North Chajjupur, Block A (Shahdara)",110032,"C 7, Jyoti Nagar West, North Chajjupur, Block A"
"EASYDAY MARKET, OPULENT MALL, PLOT NO.130, GT ROAD, NEAR CHOUDHARY MOR","Daycare","EasyDay - MF OPULENT MALL",28.65171052,77.44058847,"525f087611d2147d760ead65","New Delhi","Delhi","Daycare","Daycares","null","EASYDAY MARKET, OPULENT MALL, PLOT NO.130, GT ROAD, NEAR CHOUDHARY MOR",210009,"EASYDAY MARKET, OPULENT MALL, PLOT NO.130, GT ROAD, NEAR CHOUDHARY MOR"
"New Delhi","Daycare","Intellitots Day Care and Activity Center",28.45758804,77.07315559,"51ee2e08498e66ca85d4794c","New Delhi","Delhi","Daycare","Daycares","null","India","null","null"
"New Delhi","Daycare","Divinity International",28.556305,77.057212,"4fb4ed11e4b0d1f93826c915","New Delhi","Delhi","Daycare","Daycares","null","India","null","null"
"New Delhi","Daycare","Budding Box",28.533923,77.253334,"56becbfccd10a98e0f4aae7e","New Delhi","Delhi","Daycare","Daycares","null","India","null","null"
"New Delhi","Child Care","Tumble house",28.645953,77.126677,"58b12634ef787f7d505e54c9","New Delhi","Delhi","Child Care Service","Child Care Services","null","India","null","null"
"Sec 31 Gurgaon","Child Care","Dr. Dixit's Child Clinic And Ultrasound",28.452222,77.050485,"5965b373531593755b691131","New Delhi","Delhi","Child Care Service","Child Care Services","null","Sec 31 Gurgaon",122001,"Sec 31 Gurgaon"
"Gurgaon","Daycare","Medhaam",28.46267557,77.0645722,"50166b5de4b0d8233f5262f4","New Delhi","Delhi","Daycare","Daycares","null","Gurgaon","null","null"
"Gurgaon","Daycare","Crystal Child Care",28.48247544,77.08241844,"51441158e4b0fd5cb226c8df","New Delhi","Delhi","Daycare","Daycares","null","Gurgaon","null","null"
"New Delhi","Daycare","Young Chefs Academy",28.56880113,77.23594903,"51972004498e6cc06cdd84bf","New Delhi","Delhi","Daycare","Daycares","null","India","null","null"
"Sector 7 noida","Daycare","Noida Creche",28.59979576,77.3386482,"527220fe11d2286b3402eefb","New Delhi","Delhi","Daycare","Daycares","Sector 7 noida","b4 paryatan Vihar (Sector 7 noida)",201301,"b4 paryatan Vihar"
"Bharakhabha Road","Bank","sberbank",28.63081741,77.22319031,"52fe0e1b498ea654e1c85362","New Delhi","Delhi","Bank","Banks","null","Bharakhabha Road","null","Bharakhabha Road"
"Sector 56","Bank","HDFC Bank ATM",28.42938,77.091461,"5eafb68e2c1262000776f5dd","New Delhi","Delhi","Bank","Banks","Sector 56","HDFC Bank ATM, Wazirabad (Sector 56)",122003,"HDFC Bank ATM, Wazirabad"
"A - 15 / 15, Sector - 44, Gautam Budh Nagar Noida","Bank","HDFC Bank ATM",28.557723,77.331767,"5303a0e811d2eac30b656b6e","New Delhi","Delhi","Bank","Banks","null","A - 15 / 15, Sector - 44, Gautam Budh Nagar Noida","null","A - 15 / 15, Sector - 44, Gautam Budh Nagar Noida"
"Sector -37","Bank","IDBI Bank",28.4708,77.3148,"54c32ce7498e259a3c16f795","New Delhi","Delhi","Bank","Banks","Sector -37","Sector -37","null","null"
"Badrarpur - Shop No. - 150, Main Chowk Badarpur","Bank","HDFC Bank ATM",28.500766,77.301602,"5303a0d511d2eac30b634f6d","New Delhi","Delhi","Bank","Banks","null","Badrarpur - Shop No. - 150, Main Chowk Badarpur","null","Badrarpur - Shop No. - 150, Main Chowk Badarpur"
"Shop No. S - 6 / 12, Sector - 2 Rohini","Bank","HDFC Bank ATM",28.699818,77.098413,"5303a0e111d2eac30b64b780","New Delhi","Delhi","Bank","Banks","null","Shop No. S - 6 / 12, Sector - 2 Rohini","null","Shop No. S - 6 / 12, Sector - 2 Rohini"
"Sector 44","Bank","HDFC Bank",28.587499,77.31275,"5fb66fa8da21161f8dd87a96","New Delhi","Delhi","Bank","Banks","Sector 44","SEC 15/15 A (Sector 44)",201301,"SEC 15/15 A"
"C.C.I.","Bank","Kotak Mahindra Bank",28.682063,77.206657,"51a6b16c87f31f2007b233e7","New Delhi","Delhi","Bank","Banks","Jawahar Nagar","Ground Floor, Shop Number 4,Premises Number 16-UB, Bungalow Road (Jawahar Nagar)",110007,"Ground Floor, Shop Number 4,Premises Number 16-UB, Bungalow Road"
"Wz - 409, Janak Park, Opp Deen Dayal Hospital Hari Nagar","Bank","HDFC Bank ATM",28.626127,77.110159,"5303a0d511d2eac30b634c24","New Delhi","Delhi","Bank","Banks","null","Wz - 409, Janak Park, Opp Deen Dayal Hospital Hari Nagar","null","Wz - 409, Janak Park, Opp Deen Dayal Hospital Hari Nagar"
"Faridabad, No.19, 20, 21, 22, Mathura Road","Bank","HDFC Bank ATM",28.397666,77.31277,"5303a0d911d2eac30b63b069","New Delhi","Delhi","Bank","Banks","null","Faridabad, No.19, 20, 21, 22, Mathura Road","null","Faridabad, No.19, 20, 21, 22, Mathura Road"
"Shop No. 3F / 159, Nh - 3 Nit","Bank","HDFC Bank ATM",28.396941,77.293262,"5303a0d611d2eac30b6351d3","New Delhi","Delhi","Bank","Banks","null","Shop No. 3F / 159, Nh - 3 Nit","null","Shop No. 3F / 159, Nh - 3 Nit"
"B8 / 187, Sector 3, Opp Telephone Exchange","Bank","HDFC Bank ATM",28.700754,77.111016,"5303a0d511d2eac30b63474a","New Delhi","Delhi","Bank","Banks","null","B8 / 187, Sector 3, Opp Telephone Exchange","null","B8 / 187, Sector 3, Opp Telephone Exchange"
"HDFC Bank Ltd. G - 149, Vikaspuri","Bank","HDFC Bank ATM",28.6390576,77.07661238,"4f256a56e4b0d10db1729e20","New Delhi","Delhi","Bank","Banks","null","HDFC Bank Ltd. G - 149, Vikaspuri","null","HDFC Bank Ltd. G - 149, Vikaspuri"
"Greater Kailash","Bank","Bank of Maharashtra",28.5340745,77.24225249,"4fb0986ce4b03338fb9d5079","New Delhi","Delhi","Bank","Banks","null","Greater Kailash II",110048,"Greater Kailash II"
"New Delhi","Bank","IDBI Bank ATM",28.56395912,77.24580383,"5097d21de4b0baf4e2e63578","New Delhi","Delhi","Bank","Banks","null","India","null","null"
"Sushant Estate","Bank","J&K Bank",28.444369,77.07739366,"50276279e4b030d4ed1752aa","New Delhi","Delhi","Bank","Banks","null","Sushant Estate","null","Sushant Estate"
"New Delhi","Bank","Ubi Sec62",28.61153956,77.37102595,"4e9d435f775b37d2ea567d22","New Delhi","Delhi","Bank","Banks","null","India","null","null"
"Sector 12, RamaKrishna Puram, New Delhi, Delhi","Bank","Indian Overseas Bank",28.5753189,77.17588933,"4eec284346907303bd8b2c1c","New Delhi","Delhi","Bank","Banks","null","Sector 12, RamaKrishna Puram, New Delhi, Delhi","null","Sector 12, RamaKrishna Puram, New Delhi, Delhi"
"New Delhi","Bank","Icici Bank Enkay Center",28.49738192,77.08695406,"4e8ab20e02d540e4528f6432","New Delhi","Delhi","Bank","Banks","null","India","null","null"
"Block A, Vatika Atrium, Khasra Nos. 1742 / 1 / 2, 1743 / 2, Village Wazirabad Sect 53,","Bank","HDFC Bank ATM",28.43951797,77.10243681,"4b764bfdf964a52033472ee3","New Delhi","Delhi","Bank","Banks","null","Block A, Vatika Atrium, Khasra Nos. 1742 / 1 / 2, 1743 / 2, Village Wazirabad Sect 53,","null","Block A, Vatika Atrium, Khasra Nos. 1742 / 1 / 2, 1743 / 2, Village Wazirabad Sect 53,"
"Surajkund-Bhadkal Road","Bank","Punjab National Bank ATM- MRIU Campus",28.44071533,77.27912911,"51f3cd1a498eaf571e07e7e7","New Delhi","Delhi","Bank","Banks","Surajkund-Bhadkal Road","Sector-43, Aravali Hills (Surajkund-Bhadkal Road)","null","Sector-43, Aravali Hills"
"Gurgaon","Bank","Axis Atm",28.41529547,77.04144403,"4ee4c553be7b4845a4934faf","New Delhi","Delhi","Bank","Banks","null","Gurgaon","null","null"
"Ashram Chowk","Bank","Punjab National Bank",28.57349843,77.25892782,"4d6f44f1305d60fc00f02fb9","New Delhi","Delhi","Bank","Banks","null","Ashram Chowk","null","Ashram Chowk"
"Cc 31, Nehru Enclave Kalkaji","Bank","HDFC Bank",28.54736,77.254758,"5303a0c711d2eac30b6178f0","New Delhi","Delhi","Bank","Banks","null","Cc 31, Nehru Enclave Kalkaji","null","Cc 31, Nehru Enclave Kalkaji"
"Vatika Atrium, Block - A Sector - 53","Bank","HDFC Bank - Bank House",28.43992462,77.101858,"5303a0c911d2eac30b61a88d","New Delhi","Delhi","Bank","Banks","null","Vatika Atrium, Block - A Sector - 53","null","Vatika Atrium, Block - A Sector - 53"
"East Of Kailash","Bank","Bank Of India",28.556898,77.246004,"5b4459617cd14c00445d0cd5","New Delhi","Delhi","Bank","Banks","East Of Kailash","D-142, D Block, East of Kailash (East Of Kailash)",110065,"D-142, D Block, East of Kailash"
"Alpha - 1, Commercial Belt","Business Center","COMMERCIAL BELT - ALPHA I",28.47192484,77.51422248,"4d59fff46b028eecdc9c5982","New Delhi","Delhi","Business Center","Business Centers","null","Alpha - 1, Commercial Belt",201310,"Alpha - 1, Commercial Belt"
"Gurgaon","Bank","ICICI ATM",28.46029394,77.08820175,"4e4e813ed164978659bc4214","New Delhi","Delhi","Bank","Banks","null","Gurgaon","null","null"
"Bakkarwala","Bank","Kotak Mahindra Bank - ATM",28.67896247,77.09446808,"4fb283a07bebc1fb65070047","New Delhi","Delhi","Bank","Banks","null","Ground Floor 487/3 Peera Garhi Chowk",110041,"Ground Floor 487/3 Peera Garhi Chowk"
"Barakhamba Road","Bank","HSBC Bank",28.63021643,77.22385813,"4c61449290b2c9b6d2a93e22","New Delhi","Delhi","Bank","Banks","Barakhamba Road","Birla Tower (Barakhamba Road)","null","Birla Tower"
"South Extn Part 2","Bank","State Bank Of India",28.56772,77.22517,"5773ae64498e5e30a99e3c35","New Delhi","Delhi","Bank","Banks","null","South Extn Part 2","null","South Extn Part 2"
"Preet Vihar","Bank","Standard Chartered bank",28.63917134,77.2949178,"528709a6498ee5793280ffa6","New Delhi","Delhi","Bank","Banks","Preet Vihar","Preet Vihar","null","null"
"Baroda House","Bank","State Bank Of India, HO",28.62633644,77.21428007,"4ef818056da1f7b6618c625d","New Delhi","Delhi","Bank","Banks","Sansad Marg","Connaught Place (Sansad Marg)",110001,"Connaught Place"
"Jacaranda Marg","Bank","Citibank",28.4798899,77.0967357,"4c53c0d36a4bb71318481827","New Delhi","Delhi","Bank","Banks","Jacaranda Marg","M Block, DLF Square, DLF Phase II (Jacaranda Marg)",122002,"M Block, DLF Square, DLF Phase II"
"Gurgaon","Bank","Icici Bank",28.453039,77.050545,"4e954c4a775b163c4d7feecd","New Delhi","Delhi","Bank","Banks","null","Gurgaon","null","null"
"Kidwai Nagar East","Bank","HDFC Bank",28.576227,77.196136,"5303a0cb11d2eac30b61e80c","New Delhi","Delhi","Bank","Banks","Sarojni Nagar Mkt","85/86 (Sarojni Nagar Mkt)",110023,"85/86"
"Hauz Qazi","Bank","Kotak Mahindra Bank - Branch/ATM",28.65648,77.2275,"4f835f7a7bebda06da307840","New Delhi","Delhi","Bank","Banks","null","739 First Floor Katra Hardayal Chandni Chowk",110006,"739 First Floor Katra Hardayal Chandni Chowk"
"Jawala Heri","ATM","HDFC Bank",28.66928482,77.10472955,"4f911c7ce4b0a9b8bcd6b400","New Delhi","Delhi","ATM","ATMs","Paschim Vihar","B/2/10 (Paschim Vihar)",110063,"B/2/10"
"Nauroji Nagar","Bank","HDFC Bank",28.559044,77.195801,"5303a0c811d2eac30b619f32","New Delhi","Delhi","Bank","Banks","Safdarjung Enclave","B 6/3, Opp Deer Park (Safdarjung Enclave)",110029,"B 6/3, Opp Deer Park"
"Janta Market","ATM","HDFC Bank",28.64041867,77.12012572,"4e5f27d618a870f60f3602c0","New Delhi","Delhi","ATM","ATMs","Rajouri Garden","J/12/21 (Rajouri Garden)",110027,"J/12/21"
"Alaknanda","Bank","HDFC Bank",28.53660218,77.25777676,"4fa51ebce4b0ca09a37a63a5","New Delhi","Delhi","Bank","Banks","Kalkaji","N 13, N Blk, Nr Khandelwal Clinic (Kalkaji)",110019,"N 13, N Blk, Nr Khandelwal Clinic"
"Abul Fazal Enclave-I         ","Bank","HDFC Bank",28.53784341,77.28641776,"5303a0ca11d2eac30b61d6d1","New Delhi","Delhi","Bank","Banks","Jasola","Splender Forum (Jasola)",110025,"Splender Forum"
"Masood Pur","ATM","HDFC Bank",28.53541669,77.15274894,"4e4f51e77d8bd425e48ea0ac","New Delhi","Delhi","ATM","ATMs","Vasant Kunj","2, OCF Pkt, Sector C (Vasant Kunj)",110070,"2, OCF Pkt, Sector C"
"Anand Vihar","Bank","Bank Of India",28.627722,77.308096,"551f774e498e10a5a340054e","New Delhi","Delhi","Bank","Banks","null","Patparganj, Plot No 10 Saviti Plaza, I.P Entx",110092,"Patparganj, Plot No 10 Saviti Plaza, I.P Entx"
"Rk Puram","Bank","HDFC Bank ATM",28.56958719,77.18710968,"4e3ce71418a83d5b283d4a5f","New Delhi","Delhi","Bank","Banks","null","M / S New United Service Stn. Ring Road, Opp. Bhikaji Cama Palace, Rk Puram (Company - Bharat Petroleum)","null","M / S New United Service Stn. Ring Road, Opp. Bhikaji Cama Palace, Rk Puram (Company - Bharat Petroleum)"
"Sector 16","ATM","HDFC Bank",28.57772384,77.319169,"5303a0cc11d2eac30b620659","New Delhi","Delhi","ATM","ATMs","Sector 16","B 222/223, Dynamic House (Sector 16)",201301,"B 222/223, Dynamic House"
"Connaught Circus","High School","Bal Sahyog",28.63398039,77.22280383,"4e9aa5fef790b2a91960f8f0","New Delhi","Delhi","High School","High Schools","Connaught Circus","opposite 'L' Block Market, (Connaught Circus)","null","opposite 'L' Block Market,"
"at Chandragupta Marg","High School","American Embassy School",28.59881062,77.18236447,"4bfa57d0633d9c74b30a0843","New Delhi","Delhi","High School","High Schools","null","at Chandragupta Marg","null","at Chandragupta Marg"
"New Delhi","High School","kendriya vidyalaya, Vikas Puri",28.63354816,77.0603393,"5247994111d2b32928904376","New Delhi","Delhi","High School","High Schools","null","India","null","null"
"Sector-4","High School","Colonel's Central Academy",28.47623253,77.00492859,"4fdc9749e4b05be235fed38e","New Delhi","Delhi","High School","High Schools","Sector-4","CCA (Sector-4)",122001,"CCA"
"New Delhi","High School","Sarvodaya Vidalaya",28.58056259,77.22014618,"51e221a2498e3f6d0cf1ed15","New Delhi","Delhi","High School","High Schools","null","India","null","null"
"New Delhi","High School","Faith Academy",28.64666209,77.17772015,"4f8288cae4b042dc22bb99b9","New Delhi","Delhi","High School","High Schools","null","India","null","null"
"New Delhi","High School","Educomp Eten CA",28.54194069,77.25576782,"4f3f0ab7e4b028ca5877028d","New Delhi","Delhi","High School","High Schools","null","India","null","null"
"Anand Parbat","High School","Springdales School",28.67011855,77.16310651,"4d997fe89079b1f7a06c430a","New Delhi","Delhi","High School","High Schools","null","New Delhi 110005",110005,"null"
"New Delhi","High School","silverl line school",28.66274368,77.46760627,"504ef448e4b032dd96af9ac9","New Delhi","Delhi","High School","High Schools","null","India","null","null"
"New Delhi","High School","Modern Vidya Niketan",28.406374,77.328158,"504fe59ee4b06e593819e0e6","New Delhi","Delhi","High School","High Schools","null","India","null","null"
"New Delhi","High School","Presidium School",28.69561841,77.17283978,"513a9e2ce4b0c4aa0d93acda","New Delhi","Delhi","High School","High Schools","null","India","null","null"
"Ashok Vihar","High School","Presidium",28.69832611,77.17228699,"506a35cde4b09a4647b3808b","New Delhi","Delhi","High School","High Schools","null","Ashok Vihar","null","Ashok Vihar"
"Ashok Vihar","High School","Montfort School",28.6872761,77.1700148,"4f1b8971e4b0e6badbc4fec2","New Delhi","Delhi","High School","High Schools","null","Ashok Vihar","null","Ashok Vihar"
"New Delhi","High School","D.A.V. Public School",28.47627039,77.30978439,"4f4f849fe4b093635b96c20d","New Delhi","Delhi","High School","High Schools","null","India","null","null"
"New Delhi","High School","Air Force Golden Jubilee Institute",28.58594791,77.14941231,"4ed9966db8f7fcd03f546125","New Delhi","Delhi","High School","High Schools","null","India","null","null"
"New Delhi","High School","Bloom Public School",28.53989056,77.13942995,"4c5ced696ebe2d7fdaafd12e","New Delhi","Delhi","High School","High Schools","null","India","null","null"
"South","High School","manav bharati school",28.54295452,77.21664364,"51565ab9e4b0e3e0a14ff42a","New Delhi","Delhi","High School","High Schools","South","Panchsheel Park (South)","null","Panchsheel Park"
"Rohini","High School","Delhi Public School, Rohini",28.72643972,77.08894014,"4f0cf2d5e4b0254b4c4ddb46","New Delhi","Delhi","High School","High Schools","null","Sector 24, Rohini, New Delhi, Delhi","null","Sector 24, Rohini, New Delhi, Delhi"
"New Delhi","High School","Kendriya vidyalaya no 3",28.61715754,77.13703113,"4f0e70ece4b06ab9f93aa6ae","New Delhi","Delhi","High School","High Schools","null","India","null","null"
"Moulsari Ave, DLF City Phase III","High School","Shri Ram School",28.49884995,77.09660924,"4bd13f2d046076b0ad9f7171","New Delhi","Delhi","High School","High Schools","null","Moulsari Ave, DLF City Phase III","null","Moulsari Ave, DLF City Phase III"
"New Delhi","High School","D.P.S International School, Saket",28.52815965,77.22219027,"4c57b1696418a5931a0e800e","New Delhi","Delhi","High School","High Schools","null","India","null","null"
"New Delhi","High School","Banyan Tree World School",28.43388035,77.10406084,"4bee2857946c0f475d96a363","New Delhi","Delhi","High School","High Schools","null","India","null","null"
"Gurgaon","High School","blue bells model school",28.48365106,77.01797966,"506832a4e4b08b705a4ac01c","New Delhi","Delhi","High School","High Schools","null","Gurgaon","null","null"
"Vasant Vihar","High School","chinmaya vidyalaya",28.55595589,77.15955353,"520db60511d209e975983804","New Delhi","Delhi","High School","High Schools","Vasant Vihar","Chinmaya Vidyalaya (Vasant Vihar)","null","Chinmaya Vidyalaya"
"Amar Colony","High School","Frank Anthony Public School",28.561086,77.236875,"4d58a6e61901224b238b8da6","New Delhi","Delhi","High School","High Schools","null","lajpatnagar 4",110024,"lajpatnagar 4"
"Anand Parbat","High School","Bhai Joga Singh Public School",28.65016365,77.20066071,"56513425498e58a4afe8a838","New Delhi","Delhi","High School","High Schools","Karol Bagh","Faiz Road (Karol Bagh)",110005,"Faiz Road"
"Chilla","High School","Amity International School,East Delhi",28.59870141,77.29821105,"4d44eb45e198721e4238c18b","New Delhi","Delhi","High School","High Schools","Chilla Sarda Bangar","Sahakarita Marg,mayur vihar phase-1 (Chilla Sarda Bangar)",110091,"Sahakarita Marg,mayur vihar phase-1"
"New Delhi","High School","Kendriya vidyalaya 2",28.56299294,77.18718268,"524791b2498ef6eea2eee369","New Delhi","Delhi","High School","High Schools","null","India","null","null"
"New Delhi","High School","St. Mark's Senior Secondary Public School, Meera Bagh",28.65915533,77.08736996,"4d2a9ac3849f3704abeb8941","New Delhi","Delhi","High School","High Schools","null","New Delhi","null","null"
"Jose P Rizal Marg","High School","British School",28.59713166,77.18057864,"515b9340e4b03192d48c0c51","New Delhi","Delhi","High School","High Schools","null","Jose P Rizal Marg","null","Jose P Rizal Marg"
"New Delhi","High School","Bluebells School",28.55862934,77.23808152,"4d0dc930be6d6ea8142607b5","New Delhi","Delhi","High School","High Schools","null","India","null","null"
"G-8 Rajouri Garden","High School","Cambridge Foundation School",28.63986566,77.11436749,"4e662faeb993678bb83c634c","New Delhi","Delhi","High School","High Schools","G-8 Rajouri Garden","Rajouri Garden Extension (G-8 Rajouri Garden)","null","Rajouri Garden Extension"
"Andrewsganj","High School","Father Agnel School",28.56086461,77.21426323,"4d29dc90ec272d434b93374c","New Delhi","Delhi","High School","High Schools","Near National Chest Institute","Gautam Nagar (Near National Chest Institute)",110049,"Gautam Nagar"
"New Delhi","High School","mayur public school",28.61982066,77.29450263,"4fea83ede4b0857fc558fbf3","New Delhi","Delhi","High School","High Schools","null","India","null","null"
"New Delhi","High School","N.P. Co-Ed Sr. Secondary School",28.599251,77.228377,"52f6e8de498eabe0f2a0f42c","New Delhi","Delhi","High School","High Schools","null","India","null","null"
"South City","High School","Shikshantar school",28.45407743,77.06566835,"502f2fa0e4b01a4fc167217c","New Delhi","Delhi","High School","High Schools","null","South City","null","South City"
"New Delhi","High School","Excelsior American School",28.45670915,77.08889865,"4f373d5fe4b099ca9440369d","New Delhi","Delhi","High School","High Schools","null","India","null","null"
"New Delhi","High School","Tagore International School Vasant Vihar",28.56938774,77.16225277,"4bd64a4c4e32d13ac482c280","New Delhi","Delhi","High School","High Schools","null","New Delhi","null","null"
"Nauroji Nagar","High School","St. Mary's school",28.563893,77.196043,"4cf2a579b3662c0fc2187a30","New Delhi","Delhi","High School","High Schools","Sarah Mathew Lane","B-2 Safdarjung Enclave (Sarah Mathew Lane)",110029,"B-2 Safdarjung Enclave"
"Masood Pur","High School","bhatnagar international school",28.52672151,77.1611182,"4e1ca4a9d1649b0f7929aae8","New Delhi","Delhi","High School","High Schools","null","b-10 , vasant kunj",110070,"b-10 , vasant kunj"
"East of Kailash","High School","Tagore International School",28.55866823,77.24198307,"4d4a95925241236a4f058104","New Delhi","Delhi","High School","High Schools","null","East of Kailash","null","East of Kailash"
"Qutab Enclave Complex","High School","Summer Fields School",28.46748426,77.10439238,"5111d885e4b02ecb4fbef0e8","New Delhi","Delhi","High School","High Schools","Qutab Enclave Complex","DLF Phase 1 (Qutab Enclave Complex)","null","DLF Phase 1"
"New Delhi","High School","Jagriti Public School",28.502154,77.247198,"5295dde611d21b0f793536f9","New Delhi","Delhi","High School","High Schools","null","India","null","null"
"Anand Parbat","High School","Anand parbat",28.6621692,77.18339214,"4e4ce03862e1e5f4671c56af","New Delhi","Delhi","High School","High Schools","Ghati road","Ghati road",110005,"null"
"Anand Vihar","High School","St. Andrews Scots Sr. Sec. School",28.63584807,77.29937237,"4e873ada77c8dc447fadd17e","New Delhi","Delhi","High School","High Schools","I.P. Extension, Patparganj","9th Avenue (I.P. Extension, Patparganj)",110092,"9th Avenue"
"New Delhi","High School","Pathways World School, Gurgaon",28.42099493,77.13694687,"50b0923ae4b0b7c94ae48778","New Delhi","Delhi","High School","High Schools","null","India","null","null"
"btw Pusa Road & Vandemataram Marg","High School","Springdales School",28.64453597,77.19646454,"4c95fff315829521665a26a8","New Delhi","Delhi","High School","High Schools","btw Pusa Road & Vandemataram Marg","Pusa Road (btw Pusa Road & Vandemataram Marg)","India","Pusa Road"
"New Delhi","High School","Sachdeva Public School",28.72331717,77.12815455,"4d4cb5df4aa3a09393e03aae","New Delhi","Delhi","High School","High Schools","null","India","null","null"
"Union Public Service Commission","High School","Kanya vidyalaya",28.589101,77.302465,"4cff1924202e224b0193ac2a","New Delhi","Delhi","High School","High Schools","null","Ashok nagar",110069,"Ashok nagar"
"New Delhi","Gym / Fitness","The Pearl Hotel Fitness Center Delhi",28.64481,77.214228,"5837b2a544587f27e9f48886","New Delhi","Delhi","Gym / Fitness Center","Gyms or Fitness Centers","null","India","null","null"
"Vasant Vihar-1","Gym","Vasant Vihar Club",28.56392778,77.1561967,"4b9bb823f964a520a11d36e3","New Delhi","Delhi","Gym","Gyms","null","Pashchim Marg",110057,"Pashchim Marg"
"New Delhi","Gym / Fitness","Golds Gym (Pusa Road)",28.64332169,77.1839756,"4da7c2045da3ef8bf14f71fb","New Delhi","Delhi","Gym / Fitness Center","Gyms or Fitness Centers","null","New Delhi","null","null"
"Gurgaon","Gym / Fitness","Ozone Fitness Center",28.45849468,77.08299762,"4d8ed7facb9b224b74998e41","New Delhi","Delhi","Gym / Fitness Center","Gyms or Fitness Centers","null","Gurgaon","null","null"
"Anand Vihar","Gym","Body Mechanics",28.65976667,77.31017145,"54a0a8a8498ee641a56bff80","New Delhi","Delhi","Gym","Gyms","null","68, Ram Vihar",110092,"68, Ram Vihar"
"Greater Kailash","Gym / Fitness","Talwalkars",28.53349779,77.24387673,"4cc3ff2442d1b60c5cfa1a13","New Delhi","Delhi","Gym / Fitness Center","Gyms or Fitness Centers","null","Greater Kailash Part Two",110048,"Greater Kailash Part Two"
"New Delhi","Gym","The Big Guns",28.53250215,77.20853096,"4e304c3c52b111a1e38c52f5","New Delhi","Delhi","Gym","Gyms","null","India","null","null"
"AL Market","Gym / Fitness","Anytime Fitness",28.70349638,77.16184222,"534dfabc498eb8aaf2a5abe8","New Delhi","Delhi","Gym / Fitness Center","Gyms or Fitness Centers","null","AL Market","null","AL Market"
"Dada Ghosh Bhawan","Gym","The Gym Health Planet",28.645124,77.170565,"4dbc2e6da86e0e98a1dc4f6e","New Delhi","Delhi","Gym","Gyms","East Patel Nagar","6/15 (East Patel Nagar)",110008,"Jun-15"
"Sector 25 Market","Gym","Addiction Gym",28.58454796,77.33803129,"52c6ca8a498ef1a96c9a85ed","New Delhi","Delhi","Gym","Gyms","null","Sector 25 Market","null","Sector 25 Market"
"B-7 GK 1","Gym / Fitness","Club X-Cell",28.55635571,77.22945999,"4d689c9d1b63a1cda8fd342d","New Delhi","Delhi","Gym / Fitness Center","Gyms or Fitness Centers","null","B-7 GK 1","null","B-7 GK 1"
"Anand Vihar","Gym / Fitness","Cure Fit",28.63915,77.292403,"5daea264e520770008328b34","New Delhi","Delhi","Gym / Fitness Center","Gyms or Fitness Centers","null","New Delhi 110092",110092,"null"
"Balbir Nagar","Gym / Fitness","Gym Box Health Care",28.676403,77.28289,"59df4de673fe25483cf53df5","New Delhi","Delhi","Gym / Fitness Center","Gyms or Fitness Centers","Naveen shahdara","D-17 panchsheel garden (Naveen shahdara)",110032,"D-17 panchsheel garden"
"Janta Market","Gym","Gold's Gym",28.64618332,77.12634263,"4c1f743ffcf8c9b61da5ae0b","New Delhi","Delhi","Gym","Gyms","Rajouri Garden","Main Rd, Rajouri Garden (Rajouri Garden)",110027,"Main Rd, Rajouri Garden"
"New Delhi","Gym","Body zone Fitness centre @ Crowne Plaza",28.4679343,77.0597884,"51169742e4b059beb5b22e93","New Delhi","Delhi","Gym","Gyms","null","India","null","null"
"Masood Pur","Climbing Gym","BoulderBox",28.52931831,77.14896798,"5dd9008644c9c4000840fcb9","New Delhi","Delhi","Climbing Gym","Climbing Gyms","null","OCF, Pocket 9, Sector B, Vasant Kunj,",110070,"OCF, Pocket 9, Sector B, Vasant Kunj,"
"Amberhai","Gym / Fitness","Anytime Fitness",28.585762,77.071431,"5e3c0536ba5bc4000824b37f","New Delhi","Delhi","Gym / Fitness Center","Gyms or Fitness Centers","Sector 7 Market Dwarka","Ramphal Chowk Road (Sector 7 Market Dwarka)",110075,"Ramphal Chowk Road"
"Vasant Kunj","Gym / Fitness","Fluid Gym Vasant Kunj",28.51872234,77.16117584,"50782cede4b08350eb68db29","New Delhi","Delhi","Gym / Fitness Center","Gyms or Fitness Centers","Vasant Kunj","Opp Fortis Hospital (Vasant Kunj)","null","Opp Fortis Hospital"
"Lajpat Nagar","Gym / Fitness","Vardan - live efficiently",28.56521956,77.23723445,"5328090c498e3f9c497dcf13","New Delhi","Delhi","Gym / Fitness Center","Gyms or Fitness Centers","null","Lajpat Nagar","null","Lajpat Nagar"
"Lala Lajpath Rai Rd","Gym / Fitness","Golds Gym",28.55581189,77.24156603,"4cc574d0b2beb1f747a2224c","New Delhi","Delhi","Gym / Fitness Center","Gyms or Fitness Centers","Lala Lajpath Rai Rd","Gk / East Kailash (Lala Lajpath Rai Rd)","null","Gk / East Kailash"
"Kidwai Nagar East","Gym / Fitness","The Leela Palace Fitness Center",28.580082,77.189532,"5db50ddc8813f2000767c4d1","New Delhi","Delhi","Gym / Fitness Center","Gyms or Fitness Centers","null","Africa Ave, Diplomatic Enclave",110023,"Africa Ave, Diplomatic Enclave"
"Sector 56","Gym","Measure Gym 'n' Spa",28.42873237,77.09871782,"4fc5912ee4b0d1962ee3baca","New Delhi","Delhi","Gym","Gyms","Sector 56","HUDA Market (Sector 56)",122002,"HUDA Market"
"Greater Noida","Gym / Fitness","Jaypee Sports Complex",28.47132129,77.52611012,"4df89cf018a801cd9f135be5","New Delhi","Delhi","Gym / Fitness Center","Gyms or Fitness Centers","null","Greater Noida","null","null"
"New Delhi","Gym","Golds Gym",28.58799735,77.0714131,"4e48cfdda809fb2fa409ea38","New Delhi","Delhi","Gym","Gyms","null","New Delhi","null","null"
"New Delhi","Gym / Fitness","Fitness Center @ The Leela Palece New Delhi",28.58004888,77.1895861,"50878fa6e4b0339e5af944c9","New Delhi","Delhi","Gym / Fitness Center","Gyms or Fitness Centers","null","India","null","null"
"Far?d?b?d 121002","Gym / Fitness","CLA Fitness",28.409161,77.320071,"5a9d3f93911fc411e7b1370f","New Delhi","Delhi","Gym / Fitness Center","Gyms or Fitness Centers","null","Far?d?b?d 121002",121002,"null"
"Alaknanda","Gym","Cult Fit Epicuria",28.55123445,77.25244164,"5555d21a498efb7ce7a4b0d8","New Delhi","Delhi","Gym","Gyms","concourse level","Epicuria Nehru place (concourse level)",110019,"Epicuria Nehru place"
"New Delhi","Gym","Fitness center @ Taj Palace Hotel",28.595203,77.17052026,"506c1486e4b0fa7d3a79737f","New Delhi","Delhi","College Gym","College Gyms","null","New Delhi","null","null"
"Gurugram 122102","Gym / Fitness","Escape Gym",28.408016,77.06073,"5b6a402a95a722003a27eccc","New Delhi","Delhi","Gym / Fitness Center","Gyms or Fitness Centers","null","Gurugram 122102",122102,"null"
"New Delhi","Pool","Double Tree Pool",28.421846,77.104118,"53f08e11498e381a6cae1b0a","New Delhi","Delhi","Gym Pool","Gym Pools","null","India","null","null"
"Gurugram 122102","Gym / Fitness","Cult Baani Sector 56",28.421498,77.104956,"5a2787888c812a1d157a219b","New Delhi","Delhi","Gym / Fitness Center","Gyms or Fitness Centers","null","Gurugram 122102",122102,"null"
"Dada Ghosh Bhawan","Gym","Tamaya",28.642312,77.175279,"5c166a242a7ab6002cce3c72","New Delhi","Delhi","Gym","Gyms","Inside Jaypee Siddharth","Jaypee Siddharth Exit Road (Inside Jaypee Siddharth)",110008,"Jaypee Siddharth Exit Road"
"Sector 43, Sushant Lok 1","Gym","Gold's Gym",28.45070005,77.07864706,"5516c3d6498ea99fe4b638ea","New Delhi","Delhi","Gym","Gyms","Sector 43, Sushant Lok 1","Gold Souk, 3rd Floor (Sector 43, Sushant Lok 1)",122001,"Gold Souk, 3rd Floor"
"gk2","Gym","Talwalkars",28.54197,77.231363,"4dac48290cb6a89c6293933d","New Delhi","Delhi","Gym","Gyms","gk2","gk2","null","null"
"Greater Noida 201308","Gym / Fitness","Garage Fitness",28.479113,77.50042,"5903e282b546187ea5ae5892","New Delhi","Delhi","Gym / Fitness Center","Gyms or Fitness Centers","null","Greater Noida 201308",201308,"null"
"Gurugram","Gym / Fitness","Anytime Fitness",28.46588151,77.09983078,"58beb68a0e0a1e57cfb8f534","New Delhi","Delhi","Gym / Fitness Center","Gyms or Fitness Centers","null","Gurugram","null","null"
"Gurugram 122002","Gym / Fitness","Anytime Fitness Golf Course Road",28.442395,77.101022,"5dc6d4f4a2ed66000a071941","New Delhi","Delhi","Gym / Fitness Center","Gyms or Fitness Centers","null","Gurugram 122002",122002,"null"
"Anand Niketan","Gym / Fitness","gym @ taj palace",28.595414,77.170641,"5c1a6574bfc6d0002ccf5021","New Delhi","Delhi","Gym / Fitness Center","Gyms or Fitness Centers","null","Taj Palace Hotel",110021,"Taj Palace Hotel"
"Palam Vihar Extension","Gym","Reform Gym & Spa",28.51179675,77.02754149,"568a84f7498e8626da09a457","New Delhi","Delhi","Gym","Gyms","null","Palam Vihar Extension","null","Palam Vihar Extension"
"New Delhi","Gym / Fitness","ozOne",28.6502744,77.1205167,"538ad2b7498eed7dcdb28b06","New Delhi","Delhi","Gym / Fitness Center","Gyms or Fitness Centers","null","India","null","null"
"Old DLF Colony","Gym / Fitness","Aimfit Gym",28.470135,77.042276,"5da740015e311600088b4093","New Delhi","Delhi","Gym / Fitness Center","Gyms or Fitness Centers","Old DLF Colony","Sundar Singh Marg (Old DLF Colony)",122001,"Sundar Singh Marg"
"Shop No 18, Sector 15 Main Marker","Nutritionist","Diet Clinic Faridabad Sector 15",28.395298,77.324488,"5b04f75b4f0e58002ccb43e9","New Delhi","Delhi","Nutritionist","Nutritionists","null","Shop No 18, Sector 15 Main Marker",121007,"Shop No 18, Sector 15 Main Marker"
"South City 2","Club","Club South Patio",28.41790083,77.05411722,"4bcaa9f9cc8cd13a0538becf","New Delhi","Delhi","Club House","Club Houses","South City 2","Gurgaon, Haryana (South City 2)","null","Gurgaon, Haryana"
"Gaur gravity mall","Gym","Gold's Gym",28.63415028,77.36039088,"4d24885253e4a09324368877","New Delhi","Delhi","Gym","Gyms","Gaur gravity mall","Indirapuram (Gaur gravity mall)","null","Indirapuram"
"New Delhi","Gym / Fitness","Anytime Fitness",28.53507221,77.21039496,"5520182c498e69affab84d79","New Delhi","Delhi","Gym / Fitness Center","Gyms or Fitness Centers","null","India","null","null"
"Rajnagar","Gym","Gold's Gym",28.67362822,77.44315178,"51578d5ae4b00bf3ace0e2f7","New Delhi","Delhi","Gym","Gyms","Rajnagar","Rajnagar District Center (Rajnagar)",201002,"Rajnagar District Center"
"Ashoka Park Extn.","Health & Beauty","Diet Clinic Punjabibagh",28.66478727,77.12954476,"54fabc1f498e3692ae55c4f1","New Delhi","Delhi","Health & Beauty Service","Health & Beauty Services","Club Road","6LGF, A15, Geeta Bhawan, (Club Road)",110026,"6LGF, A15, Geeta Bhawan,"
"Dr.Mukerjee Nagar","Nutritionist","Diet Clinic Gujranwala Town North Delhi",28.6979011,77.19337153,"5806fcca38fae41af3c912eb","New Delhi","Delhi","Nutritionist","Nutritionists","Lala Achintaram Marg","224, Gujranwala Town, part 3 (Lala Achintaram Marg)",110009,"224, Gujranwala Town, part 3"
"HUDA Market","Gym","Anytime Fitness, Faridabad",28.40951334,77.32037145,"5630b1a7498ec85e7077ffed","New Delhi","Delhi","Gym","Gyms","HUDA Market","Sector 16 (HUDA Market)","null","Sector 16"
"New Delhi","Gym / Fitness","RDX Gym & Spa",28.71464528,77.14519926,"51d8359f498e44075bf5b2de","New Delhi","Delhi","Gym / Fitness Center","Gyms or Fitness Centers","null","India","null","null"
"Baroda House","South Indian","HOTEL SARAVANA BHAVAN",28.63231947,77.21644532,"519ba450498eb0c559152d94","New Delhi","Delhi","South Indian Restaurant","South Indian Restaurants","null","P-13/90, Connaught Circus",110001,"P-13/90, Connaught Circus"
"New Delhi","Vegetarian / Vegan","Mame Da Dhaba",28.48985544,77.09479965,"4f28166ee4b015cb4e761e80","New Delhi","Delhi","Vegetarian / Vegan Restaurant","Vegetarian / Vegan Restaurants","null","India","null","null"
"New Delhi","Vegetarian / Vegan","Kake ka Dhaba",28.71993,77.17416,"4fe607bbe4b079b38117e679","New Delhi","Delhi","Vegetarian / Vegan Restaurant","Vegetarian / Vegan Restaurants","null","India","null","null"
"Amberhai","Vegetarian / Vegan","Pind balluchi",28.64785914,77.12031676,"53d4d18a498e55e1fb6cf91c","New Delhi","Delhi","Vegetarian / Vegan Restaurant","Vegetarian / Vegan Restaurants","null","Sector 6",110075,"Sector 6"
"New Delhi","Vegetarian / Vegan","Tulsi Pure Veg",28.72414207,77.11432648,"52347790498e6984e669a6d5","New Delhi","Delhi","Vegetarian / Vegan Restaurant","Vegetarian / Vegan Restaurants","null","India","null","null"
"New Delhi","Vegetarian / Vegan","Tadak Punjabi",28.64143181,77.18503571,"4f7417d2e4b0ab2908151698","New Delhi","Delhi","Vegetarian / Vegan Restaurant","Vegetarian / Vegan Restaurants","null","India","null","null"
"Dlf cyber city","Vegetarian / Vegan","Santushti",28.4951059,77.0921119,"4e43faaf18a8bafc628e1da9","New Delhi","Delhi","Vegetarian / Vegan Restaurant","Vegetarian / Vegan Restaurants","null","Dlf cyber city","null","Dlf cyber city"
"Prashant Vihar","Vegetarian / Vegan","Wah ji Wah",28.71592188,77.13373901,"4e7c6f3b899821573ce10fcb","New Delhi","Delhi","Vegetarian / Vegan Restaurant","Vegetarian / Vegan Restaurants","null","Prashant Vihar","null","Prashant Vihar"
"New Delhi","Vegetarian / Vegan","The Dhaba",28.6212635,77.44325256,"541a9ae0498eabfd771d0a56","New Delhi","Delhi","Vegetarian / Vegan Restaurant","Vegetarian / Vegan Restaurants","null","India","null","null"
"New Delhi","Vegetarian / Vegan","Pindi Soya",28.631756,77.098293,"4fa40f51e4b0b487cd01a9f9","New Delhi","Delhi","Vegetarian / Vegan Restaurant","Vegetarian / Vegan Restaurants","null","India","null","null"
"Alaknanda","Vegetarian / Vegan","amritsari chole bhature",28.55299622,77.2641969,"515935cce4b0af515e0e9407","New Delhi","Delhi","Vegetarian / Vegan Restaurant","Vegetarian / Vegan Restaurants","Kalkaji Main Road","R-16 Nehru Enclave (Kalkaji Main Road)",110019,"R-16 Nehru Enclave"
"New Delhi","Vegetarian / Vegan","Veg",28.69609,77.140738,"4ff9e3cde4b033b23ca9230a","New Delhi","Delhi","Vegetarian / Vegan Restaurant","Vegetarian / Vegan Restaurants","null","India","null","null"
"Avantika","Vegetarian / Vegan","Kanha Rasoi",28.705551,77.106808,"563db592cd1044ad68a54071","New Delhi","Delhi","Vegetarian / Vegan Restaurant","Vegetarian / Vegan Restaurants","null","Sector -3, Rohini",110085,"Sector -3, Rohini"
"Distt. Court Complex  Saket   ","Vegetarian / Vegan","Chennai Dosa Corner",28.535631,77.212506,"51ab817b498e2598bf9042fa","New Delhi","Delhi","Vegetarian / Vegan Restaurant","Vegetarian / Vegan Restaurants","Main Market, Malvinas Nagar","90/31 A (Main Market, Malvinas Nagar)",110017,"90/31 A"
"Meena bazar","Vegetarian / Vegan","Premvati Rest",28.65152098,77.23931129,"4fe4b41be4b065cd6ebee352","New Delhi","Delhi","Vegetarian / Vegan Restaurant","Vegetarian / Vegan Restaurants","null","Meena bazar","null","Meena bazar"
"New Delhi","Vegetarian / Vegan","sabras",28.65378239,77.30273484,"4dd918148877f1151011a05f","New Delhi","Delhi","Vegetarian / Vegan Restaurant","Vegetarian / Vegan Restaurants","null","India","null","null"
"Ambience Mall","Fast Food","Haldiram's",28.50276451,77.09721696,"4d5f8ddc1939a35d08c216ee","New Delhi","Delhi","Fast Food Restaurant","Fast Food Restaurants","null","Ambience Mall","null","Ambience Mall"
"HUDA Market, Sector 23","Indian","Sagar Ratna",28.51036079,77.04857826,"51585837e4b0e3e0b01d2f0c","New Delhi","Delhi","Indian Restaurant","Indian Restaurants","null","HUDA Market, Sector 23","null","HUDA Market, Sector 23"
"Delhi High Court","Caf","Cafe Turtle",28.6001592,77.22723799,"4c72bd2d1b11199c351c5b13","New Delhi","Delhi","Caf","Cafs","null","2nd Flr., 23, Middle Lane, Khan Market",110003,"2nd Flr., 23, Middle Lane, Khan Market"
"Distt. Court Complex  Saket   ","Indian","Khan Chacha",28.52817038,77.21920724,"4f5c8cf6e4b086681c1463df","New Delhi","Delhi","Indian Restaurant","Indian Restaurants","Next to KFC","G 3, Select Citywalk Mall, District Centre, Saket (Next to KFC)",110017,"G 3, Select Citywalk Mall, District Centre, Saket"
"Gurugram 122001","Vegetarian / Vegan","SFG Spice Flame Grill",28.454067,77.051436,"5feb3f010985f93a58c8a540","New Delhi","Delhi","Vegetarian / Vegan Restaurant","Vegetarian / Vegan Restaurants","null","Gurugram 122001",122001,"null"
"Opp. Omax Hills, Surajkund- Badkal Road","Vegetarian / Vegan","wah hi wah, Omax Hills ,SurajKund -Badkal Road",28.460367,77.284631,"579f8a9c498ed629a9726bbd","New Delhi","Delhi","Vegetarian / Vegan Restaurant","Vegetarian / Vegan Restaurants","Opp. Omax Hills, Surajkund- Badkal Road","Web Ji Wah (Opp. Omax Hills, Surajkund- Badkal Road)",121003,"Web Ji Wah"
"New Delhi","Vegetarian / Vegan","Haldiram's",28.568306,77.219887,"529875bf11d280103dc75dd9","New Delhi","Delhi","Vegetarian / Vegan Restaurant","Vegetarian / Vegan Restaurants","null","India","null","null"
"Masood Pur","Vegetarian / Vegan","Sagar ratna",28.52522464,77.15564848,"4c0e649c336220a14019cc77","New Delhi","Delhi","Vegetarian / Vegan Restaurant","Vegetarian / Vegan Restaurants","null","Vasant Square Mall, Vasant Kunj",110070,"Vasant Square Mall, Vasant Kunj"
"Meerut Road","Vegetarian / Vegan","Marwari Bhoj",28.74841636,77.48959773,"4cb162631463a1432364a5a9","New Delhi","Delhi","Vegetarian / Vegan Restaurant","Vegetarian / Vegan Restaurants","Meerut Road","Murad Nagar, (Meerut Road)","null","Murad Nagar,"
"Main Road Kalkaji, Kalkaji","Vegetarian / Vegan","Safal",28.54013416,77.25867569,"4c7e5cb29221236a32d5813d","New Delhi","Delhi","Vegetarian / Vegan Restaurant","Vegetarian / Vegan Restaurants","null","Main Road Kalkaji, Kalkaji","null","Main Road Kalkaji, Kalkaji"
"New Delhi","Vegetarian / Vegan","a2b veg restaurant",28.64946,77.192281,"5757a258498ed6ec738cbfe2","New Delhi","Delhi","Vegetarian / Vegan Restaurant","Vegetarian / Vegan Restaurants","null","India","null","null"
"New Delhi","Vegetarian / Vegan","Sanskriti",28.49448714,77.09231564,"4ee74ddc6c25be96330c86f4","New Delhi","Delhi","Vegetarian / Vegan Restaurant","Vegetarian / Vegan Restaurants","null","India","null","null"
"Kausambhi","Vegetarian / Vegan","kama",28.63678997,77.32818828,"51795221e4b00a1c9bff789a","New Delhi","Delhi","Vegetarian / Vegan Restaurant","Vegetarian / Vegan Restaurants","Kausambhi","Raddison BLU (Kausambhi)","null","Raddison BLU"
"Anand Parbat","Vegetarian / Vegan","Udipi",28.646674,77.189242,"5c7261853fffb4002573a1f8","New Delhi","Delhi","Vegetarian / Vegan Restaurant","Vegetarian / Vegan Restaurants","null","New Delhi 110005",110005,"null"
"Gurugram 122022","Vegetarian / Vegan","Greenr",28.461388,77.04998,"5b60516f75dcb7002cdc0c27","New Delhi","Delhi","Vegetarian / Vegan Restaurant","Vegetarian / Vegan Restaurants","null","Gurugram 122022",122022,"null"
"Delhi Cantt","Vegetarian / Vegan","Pluck",28.5540869,77.1236177,"58a910f8a370b94d5a371816","New Delhi","Delhi","Vegetarian / Vegan Restaurant","Vegetarian / Vegan Restaurants","null","Pullman Hotel","null","Pullman Hotel"
"Vasant Vihar-1","Caf","Greenr Cafe",28.557888,77.164546,"5c0a1ea45a2c91002c72a9c1","New Delhi","Delhi","Caf","Cafs","Vasant Vihar","SMR House (Vasant Vihar)",110057,"SMR House"
"Defence Colony","Indian","Sagar Ratna",28.57283888,77.23060369,"4c4e4a9afa9d9521593a400a","New Delhi","Delhi","Indian Restaurant","Indian Restaurants","null","Defence Colony","null","Defence Colony"
"Gurgaon Road","Caf","FabCaf",28.552205,77.122001,"5c0209e3d1a402002c98d8de","New Delhi","Delhi","Caf","Cafs","null","Worldmark 3",110037,"Worldmark 3"
"Ground Floor, The Ashoka Hotel","Vegetarian / Vegan","Shraman",28.59738412,77.19573481,"5034ea8be4b0796bb6a0f8e2","New Delhi","Delhi","Vegetarian / Vegan Restaurant","Vegetarian / Vegan Restaurants","null","Ground Floor, The Ashoka Hotel","null","Ground Floor, The Ashoka Hotel"
"New Delhi","Vegetarian / Vegan","punjabi zaika",28.68215711,77.14473862,"4f786100e4b067aa3068d27a","New Delhi","Delhi","Vegetarian / Vegan Restaurant","Vegetarian / Vegan Restaurants","null","India","null","null"
"Saket","South Indian","HOTEL SARAVANA BHAVAN",28.529399,77.219268,"553e038e498e839c58033ed9","New Delhi","Delhi","South Indian Restaurant","South Indian Restaurants","Saket","Select City Mall (Saket)","null","Select City Mall"
"M.G Road","Vegetarian / Vegan","Sagar ratna",28.47954703,77.08029952,"4bf3a4a1706e20a17b6da898","New Delhi","Delhi","Vegetarian / Vegan Restaurant","Vegetarian / Vegan Restaurants","M.G Road","DT Mall (M.G Road)","null","DT Mall"
"Baroda House","Vegetarian / Vegan","Kulcha Junction",28.626938,77.211575,"5968817231fd14352f2648d0","New Delhi","Delhi","Vegetarian / Vegan Restaurant","Vegetarian / Vegan Restaurants","null","New Delhi 110001",110001,"null"
"Vasant Vihar-1","Vegetarian / Vegan","Chayos",28.542305,77.15595,"58d540ff158b966b155635a2","New Delhi","Delhi","Vegetarian / Vegan Restaurant","Vegetarian / Vegan Restaurants","null","Promenade Vasant Kunj",110057,"Promenade Vasant Kunj"
"New Delhi","Vegetarian / Vegan","Greenr, Store & Cafe",28.548536,77.21355,"57230ac2498e94344143c6cc","New Delhi","Delhi","Vegetarian / Vegan Restaurant","Vegetarian / Vegan Restaurants","null","India","null","null"
"Hauz Qazi","Vegetarian / Vegan","Bikanerwala",28.65667359,77.22512066,"4f787bb0e4b06336488d45b6","New Delhi","Delhi","Vegetarian / Vegan Restaurant","Vegetarian / Vegan Restaurants","null","Chandni Chowk",110006,"Chandni Chowk"
"Delhi High Court","Caf","Latitude 28",28.59958792,77.22641171,"4bcd54a4511f95212b8ab4c7","New Delhi","Delhi","Caf","Cafs","null","2nd Flr., 9, Khan Market",110003,"2nd Flr., 9, Khan Market"
"Baroda House","South Indian","HOTEL SARAVANA BHAVAN",28.62704115,77.21951363,"4c91f42fae96a0932d79a746","New Delhi","Delhi","South Indian Restaurant","South Indian Restaurants","Opp. Janpath Market","46, Janpath (Opp. Janpath Market)",110001,"46, Janpath"
"Malviya Nagar","Vegetarian / Vegan","Wah Ji Wah",28.54359254,77.20896889,"4e6f98d31838a9b627b8315d","New Delhi","Delhi","Vegetarian / Vegan Restaurant","Vegetarian / Vegan Restaurants","null","Malviya Nagar","null","Malviya Nagar"
"New Delhi","Vegetarian / Vegan","Lottan Chole Kulche",28.64231529,77.24301584,"50b9b3b9e4b0f99bbe1665f2","New Delhi","Delhi","Vegetarian / Vegan Restaurant","Vegetarian / Vegan Restaurants","null","India","null","null"
"Wazirpur Industrial Area, New Delhi, Delhi","Vegetarian / Vegan","Mohan Leela Banquet",28.70119899,77.16211797,"4eb95f416da1df9ffc23d2c1","New Delhi","Delhi","Vegetarian / Vegan Restaurant","Vegetarian / Vegan Restaurants","null","Wazirpur Industrial Area, New Delhi, Delhi","null","Wazirpur Industrial Area, New Delhi, Delhi"
"Iskon","Vegetarian / Vegan","Govinda's",28.586789,77.350248,"4d3d25a644f5a0933ebad2bb","New Delhi","Delhi","Vegetarian / Vegan Restaurant","Vegetarian / Vegan Restaurants","null","Iskon","null","Iskon"
"Kirti Nagar","Vegetarian / Vegan","Haldiram's",28.66633602,77.14656992,"4caf36a939458cfa9e80f89f","New Delhi","Delhi","Vegetarian / Vegan Restaurant","Vegetarian / Vegan Restaurants","Kirti Nagar","Food Court, Moments Mall (Kirti Nagar)","null","Food Court, Moments Mall"
"Near New Delhi Metro Station","Theme Park","Ramlila Maidan",28.6413198,77.23053217,"4e4e2d00ae6051db8db96091","New Delhi","Delhi","Theme Park","Theme Parks","null","Near New Delhi Metro Station","null","Near New Delhi Metro Station"
"Shivaji place, Tagore Garden Extension","Cineplex","Wave Cinemas",28.65190932,77.120837,"4bd51c705631c9b64ab7a330","New Delhi","Delhi","Multiplex","Multiplexes","Shivaji place, Tagore Garden Extension","TDI Mall (Shivaji place, Tagore Garden Extension)","null","TDI Mall"
"moti nagar","Cineplex","Fun Cinema",28.65684247,77.13922771,"4d6e54b924b56ea84a90fefb","New Delhi","Delhi","Multiplex","Multiplexes","null","moti nagar","null","moti nagar"
"Rajpath","Landmark","India Gate | ?????? ??? (India Gate)",28.61279643,77.22920738,"4b5eeab3f964a520ca9d29e3","New Delhi","Delhi","Monument / Landmark","Monuments / Landmarks","Rajpath","India Gate C-Hexagon (Rajpath)","null","India Gate C-Hexagon"
"Green Park Market","Event Space","Essex Farms",28.54389947,77.20125433,"4c9e087d2fb1a1433308e640","New Delhi","Delhi","Event Space","Event Spaces","null","4, Aurobindo Marg",110016,"4, Aurobindo Marg"
"Gadaipur","Landmark","Qutub Minar | ?????? ????? (Qutub Minar)",28.52526505,77.18659305,"4ba47c9bf964a520fe9f38e3","New Delhi","Delhi","Monument / Landmark","Monuments / Landmarks","null","Lado Sarai",110030,"Lado Sarai"
"Safdurjung road","Entertainment","Delhi Gymkhana Club",28.59841351,77.20499377,"4b645897f964a5203aac2ae3","New Delhi","Delhi","General Entertainment","General Entertainment","null","Safdurjung road","null","Safdurjung road"
"Bharat Scouts and Guides Marg","Landmark","Humayuns Tomb | ??????? ?? ????? (Humayuns Tomb)",28.59319707,77.24604675,"4bf7829cb182c9b6f2f0755a","New Delhi","Delhi","Monument / Landmark","Monuments / Landmarks","null","Bharat Scouts and Guides Marg","null","Bharat Scouts and Guides Marg"
"New Delhi","Stadium","R K Khanna Stadium",28.56044758,77.18822716,"4caddcf2632b37048ad06a6e","New Delhi","Delhi","Stadium","Stadiums","null","New Delhi","null","null"
"Delhi High Court","Stadium","Jawaharlal Nehru Stadium",28.58310439,77.23258667,"4e0b3a8d814dac5b11ca7967","New Delhi","Delhi","Stadium","Stadiums","Lodi Estate","Jawaharlal Nehru Stadium (Lodi Estate)",110003,"Jawaharlal Nehru Stadium"
"Green Park Market","Market","Hauz Khas Village",28.55431076,77.1951396,"4dff63787d8bc001316c3a96","New Delhi","Delhi","Market","Markets","Near Greenpark Market","Haus Khas (Near Greenpark Market)",110016,"Haus Khas"
"Third Floor, Spice World Mall, I-2, Sector 25A","Cineplex","Spice Cinemas",28.58631409,77.34085673,"4b88bdbcf964a5206e0b32e3","New Delhi","Delhi","Multiplex","Multiplexes","null","Third Floor, Spice World Mall, I-2, Sector 25A",201301,"Third Floor, Spice World Mall, I-2, Sector 25A"
"Haiderpur","Cineplex","MovieTime Cinema, Westgate Mall",28.65312508,77.12317496,"4e5e3210e4cdfc603ed747dc","New Delhi","Delhi","Multiplex","Multiplexes","null","West Gate Mall, Rajouri Garden",110088,"West Gate Mall, Rajouri Garden"
"D.E.S.U. Colony","Cineplex","Satyam Cineplex",28.6297244,77.08155851,"4be39c75f07b0f47ada0f843","New Delhi","Delhi","Multiplex","Multiplexes","null","Janakpuri Distt Centre",110058,"Janakpuri Distt Centre"
"New Delhi","Cineplex","PVR Naraina",28.63278863,77.13889499,"4d18a577e190721e0a672321","New Delhi","Delhi","Multiplex","Multiplexes","null","India","null","null"
"Avantika","Cineplex","PVR Prashant Vihar",28.71238724,77.13594326,"4d29ff0d8292236acfcb27bb","New Delhi","Delhi","Multiplex","Multiplexes","Sector 14, Rohini","2nd Floor, Fun City Mall, PVR Prashant Vihar Road (Sector 14, Rohini)",110085,"2nd Floor, Fun City Mall, PVR Prashant Vihar Road"
"Avantika","Cineplex","M2K Cinema",28.70287086,77.11768157,"4bf6720dbb5176b004fa5ab2","New Delhi","Delhi","Multiplex","Multiplexes","Delhi","Rohini (Delhi)",110085,"Rohini"
"Ashok Nagar","Cineplex","PVR Cinemas",28.63904704,77.0749374,"4e3a211c15209132ac1063e7","New Delhi","Delhi","Multiplex","Multiplexes","null","Community Center, Shop G1, Vikaspuri",110018,"Community Center, Shop G1, Vikaspuri"
"MG Rd.","Cineplex","PVR Cinemas",28.48095353,77.0802195,"4b9a58e4f964a520e2ad35e3","New Delhi","Delhi","Multiplex","Multiplexes","MG Rd.","MGF Metropolitan Mall (MG Rd.)","null","MGF Metropolitan Mall"
"Distt. Court Complex  Saket   ","Mall","DLF Place Saket",28.52803211,77.21689611,"4b6e639ff964a52059bb2ce3","New Delhi","Delhi","Shopping Mall","Shopping Malls","NA","Saket, (NA)",110017,"Saket,"
"East Of Kailash","Indie Movies","M Cinemas",28.55906511,77.2464444,"4eed61d36c25c7f9d2019a8c","New Delhi","Delhi","Indie Movie Theater","Indie Movie Theaters","Formerly Sapna Cinema","54 Community Centre, East Of Kailash (Formerly Sapna Cinema)",110065,"54 Community Centre, East Of Kailash"
"Near sector 6 market","Playground","Dwarka Sports Complex",28.59094023,77.05646042,"4cfa26cdd8468cfa7cd6eb6b","New Delhi","Delhi","Playground","Playgrounds","Near sector 6 market","Dwarka sports complex (Near sector 6 market)","null","Dwarka sports complex"
"Sector 56","Park","Tau Devi Lal Biodiversity Park",28.42974923,77.09118602,"4fa5d26ce4b08e1f892d91f7","New Delhi","Delhi","Park","Parks","null","Gurgaon 122011",122011,"null"
"New Delhi","Cineplex","Saket Complex",28.5198929,77.20643561,"4e7dec938231e88c0cc4d253","New Delhi","Delhi","Multiplex","Multiplexes","null","India","null","null"
"Sector 4","Entertainment","Radio One 94.3 FM (Studio)",28.5818893,77.32460421,"50403147e4b0047a40d1e44e","New Delhi","Delhi","General Entertainment","General Entertainment","null","Sector 4","null","Sector 4"
"New Delhi","Theater","Prasar Bharti Doordarshan central production center",28.54791623,77.21657627,"4f65d5d9e4b09ff9bdc327e1","New Delhi","Delhi","Theater","Theaters","null","India","null","null"
"3, Kasturba Gandhi Marg","Performing Arts","Max Mueller Bhawan | ????? ?????? ???",28.62378699,77.22403419,"4cbdac780180721e38b7aa61","New Delhi","Delhi","Performing Arts Venue","Performing Arts Venues","null","3, Kasturba Gandhi Marg","null","3, Kasturba Gandhi Marg"
"New Delhi","Arcade","Respawn Gaming Cafe",28.64947379,77.13321091,"4f4cb226e4b0c132f552c27e","New Delhi","Delhi","Arcade","Arcades","null","India","null","null"
"Ashok Rd","Historic Site","Election Commission of India",28.62398908,77.21159995,"4e19f017814da5f55257107c","New Delhi","Delhi","Historic Site","Historic Sites","null","Ashok Rd","null","Ashok Rd"
"Hauz Qazi","Landmark","Red Fort | Lal Qila | ??? ????? | ??? ???? (Red Fort (Lal Qila))",28.65575893,77.2419548,"4bf214b83506ef3b1d7abd22","New Delhi","Delhi","Monument / Landmark","Monuments / Landmarks","null","Mahatma Gandhi Marg",110006,"Mahatma Gandhi Marg"
"Teen Murti Road","History Museum","Nehru Memorial Museum And Library | ????? ?????? ????????? ??? ????????? (Nehru Memorial Museum And Library)",28.60300145,77.19918244,"4d09df938ea0a14343e1e273","New Delhi","Delhi","History Museum","History Museums","null","Teen Murti Road","null","Teen Murti Road"
"MG Road","Arcade","DLF City Court",28.48300731,77.09556957,"55472a81498ef7993d8c41ac","New Delhi","Delhi","Arcade","Arcades","MG Road","MG Road","null","null"
"Maya Puri","Arcade","Hari Nagar Clock Tower",28.62523903,77.11100064,"4c6d18d2d0869521ad9b0bea","New Delhi","Delhi","Arcade","Arcades","null","Hari Nagar",110064,"Hari Nagar"
"Gadaipur","Art Gallery","Nature Morte",28.503974,77.184848,"600c18e7b9c32c6d0d76faf6","New Delhi","Delhi","Art Gallery","Art Galleries","null","New Delhi 110030",110030,"null"
"Kakrola","Movie Theater","PVR Vegas Mall",28.600941,77.030234,"5df002a83db41d000818395d","New Delhi","Delhi","Movie Theater","Movie Theaters","null","New Delhi 110078",110078,"null"
"New Delhi","Cineplex","US cinemas",28.647025,77.375428,"575d94ad498e67516b193cc9","New Delhi","Delhi","Multiplex","Multiplexes","null","India","null","null"
"GT Road,","Cineplex","Chaudhary Cineplex",28.65337698,77.43800282,"4e0457d3d4c068446619c622","New Delhi","Delhi","Multiplex","Multiplexes","null","GT Road,","null","GT Road,"
"Masood Pur","Cineplex","Pvr Icon",28.542677,77.15553,"5a15c68ce4c4594c8e88af25","New Delhi","Delhi","Multiplex","Multiplexes","null","New Delhi 110070",110070,"null"
"sector 31","Cineplex","SRS cinemas, Pristine mall",28.43847737,77.31547246,"4ebe69618231b62f41b5c0f3","New Delhi","Delhi","Multiplex","Multiplexes","null","sector 31","null","sector 31"
"Kaushambi","Movie Theater","Wave cinemas",28.64473641,77.32616349,"4ce9260afe90a35db9df460e","New Delhi","Delhi","Movie Theater","Movie Theaters","null","Kaushambi","null","Kaushambi"
"Dr.Mukerjee Nagar","Indie Movies","Batra Cinema",28.71111212,77.21523449,"4d2c7cb5342d6dcb1ce11fcb","New Delhi","Delhi","Indie Movie Theater","Indie Movie Theaters","null","Dr Mukherjee Nagar",110009,"Dr Mukherjee Nagar"
"Greater Noida 201308","Mall","OMAXE CONNAUGHT PLACE MALL",28.488905,77.514997,"5a0eeaf4112c6c185eff5bf4","New Delhi","Delhi","Shopping Mall","Shopping Malls","null","Greater Noida 201308",201308,"null"
"D.E.S.U. Colony","Art Gallery","Dilli Haat Janak Puri",28.62187168,77.09704758,"5390685b498ed799b4a2608e","New Delhi","Delhi","Art Gallery","Art Galleries","null","Virender Nagar",110058,"Virender Nagar"
"Sector-25 A","Stadium","Noida Stadium",28.58859762,77.33957918,"4e63089c1838ad3d0f11dc6b","New Delhi","Delhi","Stadium","Stadiums","null","Sector-25 A",201301,"Sector-25 A"
"Hauz Qazi","Historic Site","Gowri Shankar Temple",28.65622459,77.23556172,"4f7da821e4b0bf87a9c50fa6","New Delhi","Delhi","Historic Site","Historic Sites","null","Chandni Chowk",110006,"Chandni Chowk"
"New Delhi","Arcade","Defence colony flyover market",28.577555,77.23857037,"4f5ae4eae4b05cfda42af901","New Delhi","Delhi","Arcade","Arcades","null","India","null","null"
"Baroda House","Historic Site","Jantar Mantar",28.62773076,77.21643592,"4befd1bdc8d920a132289430","New Delhi","Delhi","Historic Site","Historic Sites","null","Sansad Marg, Connaught Place",110001,"Sansad Marg, Connaught Place"
"Chanakyapuri","Museum","Rail Museum | ??? ????????? (Rail Museum)",28.58559438,77.18079766,"4c148f7fb7b9c928939cab37","New Delhi","Delhi","Museum","Museums","null","Chanakyapuri","null","Chanakyapuri"
"Peeragarhi","Entertainment","Symphony banquet",28.68058135,77.08538038,"4f5c7962e4b01f8f4cdc619e","New Delhi","Delhi","General Entertainment","General Entertainment","null","Peeragarhi","null","Peeragarhi"
"Sec-56, Gurgaon","Arcade","Wazirabad, Sec-56, Gurgaon,",28.42988618,77.09198968,"4bc32a2b74a9a5934a1fd4f6","New Delhi","Delhi","Arcade","Arcades","null","Sec-56, Gurgaon",122001,"Sec-56, Gurgaon"
"Distt. Court Complex  Saket   ","Cineplex","PVR Cinemas",28.52820177,77.21946148,"4b5da091f964a520176429e3","New Delhi","Delhi","Multiplex","Multiplexes","Select City Walk Mall","2nd Floor, Select City Walk, A-3, Press Enclave Marg, District Center, Saket (Select City Walk Mall)",110017,"2nd Floor, Select City Walk, A-3, Press Enclave Marg, District Center, Saket"
"Logix City Center","Cineplex","PVR",28.57423283,77.35355811,"570a7b67498e2c551cbb741c","New Delhi","Delhi","Multiplex","Multiplexes","null","Logix City Center","null","Logix City Center"
"Great India Place Mall, Sector 38-A","Cineplex","CARNIVAL CINEMAS",28.56801855,77.32649325,"4baef928f964a520bfe43be3","New Delhi","Delhi","Multiplex","Multiplexes","Great India Place Mall, Sector 38-A","Third Floor, (Great India Place Mall, Sector 38-A)",201301,"Third Floor,"
"NH8","Cineplex","DT Cinemas",28.46150628,77.05249009,"4fdc819ce4b018d07896f04a","New Delhi","Delhi","Multiplex","Multiplexes","NH8","DT Star Mall (NH8)",122001,"DT Star Mall"
"Dada Ghosh Bhawan","Movie Theater","Satyam Cineplex",28.65016627,77.15793134,"4b489866f964a520255026e3","New Delhi","Delhi","Movie Theater","Movie Theaters","Patel Nagar","Shadipur Metro (Patel Nagar)",110008,"Shadipur Metro"
"Mehrauli Gurgaon Rd","Movie Theater","PVR Cinemas",28.47900832,77.08083154,"4d57f45ad1a08cfa49ad09ba","New Delhi","Delhi","Movie Theater","Movie Theaters","Mehrauli Gurgaon Rd","DLF City Centre Mall (Mehrauli Gurgaon Rd)","null","DLF City Centre Mall"
"Masood Pur","Movie Theater","PVR Director's Cut",28.54077309,77.15449924,"4f48e087e4b0291e48c90c03","New Delhi","Delhi","Movie Theater","Movie Theaters","None","3rd Flr., Ambience Mall, Nelson Mandela Rd., Vasant Kunj (None)",110070,"3rd Flr., Ambience Mall, Nelson Mandela Rd., Vasant Kunj"
"GK 2","Cineplex","DT Cinemas",28.54147043,77.2398095,"4f80478de4b05d42ddf28983","New Delhi","Delhi","Multiplex","Multiplexes","GK 2","GK 2","null","null"
"New Delhi","Cineplex","DT Cinemas",28.44642622,77.0795576,"51cffb5c498e7a11529be3be","New Delhi","Delhi","Multiplex","Multiplexes","null","India","null","null"
"Jhulelal Apartment","Cineplex","La Fearless Cinema",28.69755708,77.13540755,"4fbf9ab7e4b050c6795f636f","New Delhi","Delhi","Multiplex","Multiplexes","null","Jhulelal Apartment","null","Jhulelal Apartment"
"New Delhi","Cineplex","cinemax pacific mall",28.64243887,77.10638164,"516557c2e4b0839e5042298b","New Delhi","Delhi","Multiplex","Multiplexes","null","India","null","null"
"Far?d?b?d","Cineplex","PVR",28.436577,77.30298,"4ee4893329c220f971cc5e23","New Delhi","Delhi","Multiplex","Multiplexes","null","Far?d?b?d","null","null"
"New Delhi","Cineplex","SRS Cinemas, Shubham Tower",28.38351168,77.31433935,"5003f302e4b0382ba0c6d15b","New Delhi","Delhi","Multiplex","Multiplexes","null","India","null","null"
"Pitampura","Cineplex","M2k Pitampura",28.68927667,77.13322215,"4ca7011644a8224b99d90840","New Delhi","Delhi","Multiplex","Multiplexes","null","Pitampura","null","Pitampura"
"Anand Niketan","Cineplex","Pvr Ecx Chanakya",28.58435224,77.19076664,"59c52d9accad6b5a58c314b8","New Delhi","Delhi","Multiplex","Multiplexes","null","DLF Emporio Chanakyapuri",110021,"DLF Emporio Chanakyapuri"
"Avantika","Cineplex","Cinepolis, Unity One Rohini",28.714867,77.11565,"577e46f9498e3459596bd2c8","New Delhi","Delhi","Multiplex","Multiplexes","Rohini West Metro Station","Unity One Mall (Rohini West Metro Station)",110085,"Unity One Mall"
"Noida 201301","Restaurant","Noida Social",28.567208,77.32057,"5defaccc2d5b120007cadd00","New Delhi","Delhi","Restaurant","Restaurants","null","Noida 201301",201301,"null"
"Sarojini Naidu Marg","Movie Theater","SRS Cinemas",28.63836792,77.36065304,"51346ce2e8893c143a3b9117","New Delhi","Delhi","Movie Theater","Movie Theaters","Sarojini Naidu Marg","Aditya City Center, (Sarojini Naidu Marg)",201010,"Aditya City Center,"
"NH 8","Cineplex","Pvr Imax",28.50416,77.09739,"5a8958e726659b534a83c3b2","New Delhi","Delhi","Multiplex","Multiplexes","NH 8","Ambience Mall (NH 8)",122001,"Ambience Mall"
"Sector 4","Cineplex","StarX Cinemas",28.64273078,77.340556,"4c8c8cbced3ab60cabf76821","New Delhi","Delhi","Multiplex","Multiplexes","null","Sector 4","null","Sector 4"
"D.E.S.U. Colony","Movie Theater","Cinepolis Janak",28.611002,77.09375,"5acf90302a7ab66d70afa358","New Delhi","Delhi","Movie Theater","Movie Theaters","null","New Delhi 110058",110058,"null"
"DLF Mall of India","Cineplex","PVR ECX",28.56728414,77.3209056,"5898cf4bbf1a6d219a399052","New Delhi","Delhi","Multiplex","Multiplexes","null","DLF Mall of India","null","DLF Mall of India"
"New Delhi","Cineplex","PVR Audi 02",28.64510108,77.33759945,"4fe6c7b3e4b0b8bb5b1255c9","New Delhi","Delhi","Multiplex","Multiplexes","null","India","null","null"
"Gh?zi?b?d","Movie Theater","PVR EDM",28.64132275,77.31702625,"4d4d7a799ee137040d3d848b","New Delhi","Delhi","Movie Theater","Movie Theaters","null","Gh?zi?b?d","null","null"
"Gurugram 122001","Cineplex","Pvr Mega Mall",28.47568149,77.09321339,"596207f6112c6c70932f7452","New Delhi","Delhi","Multiplex","Multiplexes","null","Gurugram 122001",122001,"null"
"New Delhi","Cineplex","PM Cinemas Faridabad",28.38352712,77.31459739,"5124edace4b05a081c8902ec","New Delhi","Delhi","Multiplex","Multiplexes","null","India","null","null"
"Second Floor, Metropolis Mall","Cineplex","Miraj Cinemas",28.478788,77.08276,"5c398c3e9411f2002c960b7d","New Delhi","Delhi","Multiplex","Multiplexes","null","Second Floor, Metropolis Mall",122001,"Second Floor, Metropolis Mall"
"New Delhi","Indie Movies","Amba cimena",28.67901968,77.21047918,"5209ca6f11d2d946804fe15d","New Delhi","Delhi","Indie Movie Theater","Indie Movie Theaters","null","India","null","null"
"AHINSHA KHAND, INDIRAPURAM","Cineplex","SRS Cinema",28.64025848,77.37830886,"4c4d761592b6a593ea19496e","New Delhi","Delhi","Multiplex","Multiplexes","AHINSHA KHAND, INDIRAPURAM","1ST FLOOR, JAIPURIA MALL, PLOT NO.12 (AHINSHA KHAND, INDIRAPURAM)","null","1ST FLOOR, JAIPURIA MALL, PLOT NO.12"
"New Delhi","Cineplex","Wave Cinemas, Centre Stage Mall",28.5549383,77.33079634,"4fc1102ae4b0d8970317475f","New Delhi","Delhi","Multiplex","Multiplexes","null","India","null","null"
"August Kranti Marg, Asian Games Village Complex, Gautam Nagar","Theater","Siri Fort Auditorium",28.55355412,77.21227016,"4d1030a17177b1f744145022","New Delhi","Delhi","Theater","Theaters","null","August Kranti Marg, Asian Games Village Complex, Gautam Nagar","null","August Kranti Marg, Asian Games Village Complex, Gautam Nagar"
"New Delhi","University","Jawaharlal Nehru University",28.5455351,77.16807715,"4c96060f82b56dcb13cdddaa","New Delhi","Delhi","University","Universities","null","India","null","null"
